$GPGGA,093749.00,4138.7705,N,00445.6801,W,1,14,0.7,714.01,M,53.80,M,,*70
$GPGGA,093749.10,4138.7705,N,00445.6801,W,1,14,0.7,714.01,M,53.80,M,,*71
$GPGGA,093749.20,4138.7705,N,00445.6801,W,1,14,0.7,714.01,M,53.80,M,,*72
$GPGGA,093749.30,4138.7705,N,00445.6801,W,1,14,0.7,714.01,M,53.80,M,,*73
$GPGGA,093749.40,4138.7705,N,00445.6801,W,1,14,0.7,714.01,M,53.80,M,,*74
$GPGGA,093749.50,4138.7705,N,00445.6801,W,1,14,0.7,714.01,M,53.80,M,,*75
$GPGGA,093749.60,4138.7705,N,00445.6801,W,1,14,0.7,714.01,M,53.80,M,,*76
$GPGGA,093749.70,4138.7705,N,00445.6801,W,1,14,0.7,714.01,M,53.80,M,,*77
$GPGGA,093749.80,4138.7705,N,00445.6801,W,1,14,0.7,714.01,M,53.80,M,,*78
$GPGGA,093749.90,4138.7705,N,00445.6801,W,1,14,0.7,714.01,M,53.80,M,,*79
$GPGGA,093750.00,4138.7705,N,00445.6801,W,1,14,0.7,714.01,M,53.80,M,,*78
$GPGGA,093750.10,4138.7705,N,00445.6801,W,1,14,0.7,714.01,M,53.80,M,,*79
$GPGGA,093750.20,4138.7705,N,00445.6801,W,1,14,0.7,714.01,M,53.80,M,,*7A
$GPGGA,093750.30,4138.7705,N,00445.6801,W,1,14,0.7,714.01,M,53.80,M,,*7B
$GPGGA,093750.40,4138.7705,N,00445.6801,W,1,14,0.7,714.01,M,53.80,M,,*7C
$GPGGA,093750.50,4138.7705,N,00445.6801,W,1,14,0.7,714.01,M,53.80,M,,*7D
$GPGGA,093750.60,4138.7705,N,00445.6801,W,1,14,0.7,714.01,M,53.80,M,,*7E
$GPGGA,093750.70,4138.7705,N,00445.6801,W,1,14,0.7,714.01,M,53.80,M,,*7F
$GPGGA,093750.80,4138.7705,N,00445.6801,W,1,14,0.7,714.01,M,53.80,M,,*70
$GPGGA,093750.90,4138.7705,N,00445.6801,W,1,14,0.7,714.01,M,53.80,M,,*71
$GPGGA,093751.00,4138.7705,N,00445.6801,W,1,14,0.7,714.01,M,53.80,M,,*79
$GPGGA,093751.10,4138.7705,N,00445.6801,W,1,14,0.7,714.01,M,53.80,M,,*78
$GPGGA,093751.20,4138.7705,N,00445.6801,W,1,14,0.7,714.01,M,53.80,M,,*7B
$GPGGA,093751.30,4138.7705,N,00445.6801,W,1,14,0.7,714.01,M,53.80,M,,*7A
$GPGGA,093751.40,4138.7705,N,00445.6801,W,1,14,0.7,714.01,M,53.80,M,,*7D
$GPGGA,093751.50,4138.7705,N,00445.6801,W,1,14,0.7,714.01,M,53.80,M,,*7C
$GPGGA,093751.60,4138.7705,N,00445.6801,W,1,14,0.7,714.01,M,53.80,M,,*7F
$GPGGA,093751.70,4138.7705,N,00445.6801,W,1,14,0.7,714.01,M,53.80,M,,*7E
$GPGGA,093751.80,4138.7705,N,00445.6801,W,1,14,0.7,714.01,M,53.80,M,,*71
$GPGGA,093751.90,4138.7705,N,00445.6801,W,1,14,0.7,714.01,M,53.80,M,,*70
$GPGGA,093752.00,4138.7705,N,00445.6801,W,1,14,0.7,714.01,M,53.80,M,,*7A
$GPGGA,093752.10,4138.7705,N,00445.6801,W,1,14,0.7,714.01,M,53.80,M,,*7B
$GPGGA,093752.20,4138.7705,N,00445.6801,W,1,14,0.7,714.01,M,53.80,M,,*78
$GPGGA,093752.30,4138.7705,N,00445.6801,W,1,14,0.7,714.01,M,53.80,M,,*79
$GPGGA,093752.40,4138.7705,N,00445.6801,W,1,14,0.7,714.01,M,53.80,M,,*7E
$GPGGA,093752.50,4138.7705,N,00445.6801,W,1,14,0.7,714.01,M,53.80,M,,*7F
$GPGGA,093752.60,4138.7705,N,00445.6801,W,1,14,0.7,714.01,M,53.80,M,,*7C
$GPGGA,093752.70,4138.7705,N,00445.6801,W,1,14,0.7,714.01,M,53.80,M,,*7D
$GPGGA,093752.80,4138.7705,N,00445.6801,W,1,14,0.7,714.01,M,53.80,M,,*72
$GPGGA,093752.90,4138.7705,N,00445.6801,W,1,14,0.7,714.01,M,53.80,M,,*73
$GPGGA,093753.00,4138.7705,N,00445.6801,W,1,14,0.7,714.01,M,53.80,M,,*7B
$GPGGA,093753.10,4138.7705,N,00445.6801,W,1,14,0.7,714.01,M,53.80,M,,*7A
$GPGGA,093753.20,4138.7705,N,00445.6801,W,1,14,0.7,714.01,M,53.80,M,,*79
$GPGGA,093753.30,4138.7705,N,00445.6801,W,1,14,0.7,714.01,M,53.80,M,,*78
$GPGGA,093753.40,4138.7705,N,00445.6801,W,1,14,0.7,714.01,M,53.80,M,,*7F
$GPGGA,093753.50,4138.7705,N,00445.6801,W,1,14,0.7,714.01,M,53.80,M,,*7E
$GPGGA,093753.60,4138.7705,N,00445.6801,W,1,14,0.7,714.01,M,53.80,M,,*7D
$GPGGA,093753.70,4138.7705,N,00445.6801,W,1,14,0.7,714.01,M,53.80,M,,*7C
$GPGGA,093753.80,4138.7705,N,00445.6801,W,1,14,0.7,714.01,M,53.80,M,,*73
$GPGGA,093753.90,4138.7705,N,00445.6801,W,1,14,0.7,714.01,M,53.80,M,,*72
$GPGGA,093754.00,4138.7705,N,00445.6801,W,1,14,0.7,714.01,M,53.80,M,,*7C
$GPGGA,093754.10,4138.7705,N,00445.6801,W,1,14,0.7,714.01,M,53.80,M,,*7D
$GPGGA,093754.20,4138.7705,N,00445.6801,W,1,14,0.7,714.01,M,53.80,M,,*7E
$GPGGA,093754.30,4138.7705,N,00445.6801,W,1,14,0.7,714.01,M,53.80,M,,*7F
$GPGGA,093754.40,4138.7705,N,00445.6801,W,1,14,0.7,714.01,M,53.80,M,,*78
$GPGGA,093754.50,4138.7705,N,00445.6801,W,1,14,0.7,714.01,M,53.80,M,,*79
$GPGGA,093754.60,4138.7705,N,00445.6801,W,1,14,0.7,714.01,M,53.80,M,,*7A
$GPGGA,093754.70,4138.7705,N,00445.6801,W,1,14,0.7,714.01,M,53.80,M,,*7B
$GPGGA,093754.80,4138.7705,N,00445.6801,W,1,14,0.7,714.01,M,53.80,M,,*74
$GPGGA,093754.90,4138.7705,N,00445.6801,W,1,14,0.7,714.01,M,53.80,M,,*75
$GPGGA,093755.00,4138.7705,N,00445.6801,W,1,14,0.7,714.01,M,53.80,M,,*7D
$GPGGA,093755.10,4138.7705,N,00445.6801,W,1,14,0.7,714.01,M,53.80,M,,*7C
$GPGGA,093755.20,4138.7705,N,00445.6801,W,1,14,0.7,714.01,M,53.80,M,,*7F
$GPGGA,093755.30,4138.7705,N,00445.6801,W,1,14,0.7,714.01,M,53.80,M,,*7E
$GPGGA,093755.40,4138.7705,N,00445.6801,W,1,14,0.7,714.01,M,53.80,M,,*79
$GPGGA,093755.50,4138.7705,N,00445.6801,W,1,14,0.7,714.01,M,53.80,M,,*78
$GPGGA,093755.60,4138.7705,N,00445.6801,W,1,14,0.7,714.01,M,53.80,M,,*7B
$GPGGA,093755.70,4138.7705,N,00445.6801,W,1,14,0.7,714.01,M,53.80,M,,*7A
$GPGGA,093755.80,4138.7705,N,00445.6801,W,1,14,0.7,714.01,M,53.80,M,,*75
$GPGGA,093755.90,4138.7705,N,00445.6801,W,1,14,0.7,714.01,M,53.80,M,,*74
$GPGGA,093756.00,4138.7705,N,00445.6801,W,1,14,0.7,714.01,M,53.80,M,,*7E
$GPGGA,093756.10,4138.7705,N,00445.6801,W,1,14,0.7,714.01,M,53.80,M,,*7F
$GPGGA,093756.20,4138.7705,N,00445.6801,W,1,14,0.7,714.01,M,53.80,M,,*7C
$GPGGA,093756.30,4138.7705,N,00445.6801,W,1,14,0.7,714.01,M,53.80,M,,*7D
$GPGGA,093756.40,4138.7705,N,00445.6801,W,1,14,0.7,714.01,M,53.80,M,,*7A
$GPGGA,093756.50,4138.7705,N,00445.6801,W,1,14,0.7,714.01,M,53.80,M,,*7B
$GPGGA,093756.60,4138.7705,N,00445.6801,W,1,14,0.7,714.01,M,53.80,M,,*78
$GPGGA,093756.70,4138.7705,N,00445.6801,W,1,14,0.7,714.01,M,53.80,M,,*79
$GPGGA,093756.80,4138.7705,N,00445.6801,W,1,14,0.7,714.01,M,53.80,M,,*76
$GPGGA,093756.90,4138.7705,N,00445.6801,W,1,14,0.7,714.01,M,53.80,M,,*77
$GPGGA,093757.00,4138.7705,N,00445.6801,W,1,14,0.7,714.01,M,53.80,M,,*7F
$GPGGA,093757.10,4138.7705,N,00445.6801,W,1,14,0.7,714.01,M,53.80,M,,*7E
$GPGGA,093757.20,4138.7705,N,00445.6801,W,1,14,0.7,714.01,M,53.80,M,,*7D
$GPGGA,093757.30,4138.7705,N,00445.6801,W,1,14,0.7,714.01,M,53.80,M,,*7C
$GPGGA,093757.40,4138.7705,N,00445.6801,W,1,14,0.7,714.01,M,53.80,M,,*7B
$GPGGA,093757.50,4138.7705,N,00445.6801,W,1,14,0.7,714.01,M,53.80,M,,*7A
$GPGGA,093757.60,4138.7705,N,00445.6801,W,1,14,0.7,714.01,M,53.80,M,,*79
$GPGGA,093757.70,4138.7705,N,00445.6801,W,1,14,0.7,714.01,M,53.80,M,,*78
$GPGGA,093757.80,4138.7705,N,00445.6801,W,1,14,0.7,714.01,M,53.80,M,,*77
$GPGGA,093757.90,4138.7705,N,00445.6801,W,1,14,0.7,714.01,M,53.80,M,,*76
$GPGGA,093758.00,4138.7705,N,00445.6801,W,1,14,0.7,714.01,M,53.80,M,,*70
$GPGGA,093758.10,4138.7705,N,00445.6801,W,1,14,0.7,714.01,M,53.80,M,,*71
$GPGGA,093758.20,4138.7705,N,00445.6801,W,1,14,0.7,714.01,M,53.80,M,,*72
$GPGGA,093758.30,4138.7705,N,00445.6801,W,1,14,0.7,714.01,M,53.80,M,,*73
$GPGGA,093758.40,4138.7705,N,00445.6801,W,1,14,0.7,714.01,M,53.80,M,,*74
$GPGGA,093758.50,4138.7705,N,00445.6801,W,1,14,0.7,714.01,M,53.80,M,,*75
$GPGGA,093758.60,4138.7705,N,00445.6801,W,1,14,0.7,714.01,M,53.80,M,,*76
$GPGGA,093758.70,4138.7705,N,00445.6801,W,1,14,0.7,714.01,M,53.80,M,,*77
$GPGGA,093758.80,4138.7705,N,00445.6801,W,1,14,0.7,714.01,M,53.80,M,,*78
$GPGGA,093758.90,4138.7705,N,00445.6801,W,1,14,0.7,714.01,M,53.80,M,,*79
$GPGGA,093759.00,4138.7705,N,00445.6801,W,1,14,0.7,714.01,M,53.80,M,,*71
$GPGGA,093759.10,4138.7705,N,00445.6801,W,1,14,0.7,714.01,M,53.80,M,,*70
$GPGGA,093759.20,4138.7705,N,00445.6801,W,1,14,0.7,714.01,M,53.80,M,,*73
$GPGGA,093759.30,4138.7705,N,00445.6801,W,1,14,0.7,714.01,M,53.80,M,,*72
$GPGGA,093759.40,4138.7705,N,00445.6801,W,1,14,0.7,714.01,M,53.80,M,,*75
$GPGGA,093759.50,4138.7705,N,00445.6801,W,1,14,0.7,714.01,M,53.80,M,,*74
$GPGGA,093759.60,4138.7705,N,00445.6801,W,1,14,0.7,714.01,M,53.80,M,,*77
$GPGGA,093759.70,4138.7705,N,00445.6801,W,1,14,0.7,714.01,M,53.80,M,,*76
$GPGGA,093759.80,4138.7705,N,00445.6801,W,1,14,0.7,714.01,M,53.80,M,,*79
$GPGGA,093759.90,4138.7705,N,00445.6801,W,1,14,0.7,714.01,M,53.80,M,,*78
$GPGGA,093800.00,4138.7705,N,00445.6801,W,1,14,0.7,714.01,M,53.80,M,,*72
$GPGGA,093800.10,4138.7705,N,00445.6801,W,1,14,0.7,714.01,M,53.80,M,,*73
$GPGGA,093800.20,4138.7705,N,00445.6801,W,1,14,0.7,714.01,M,53.80,M,,*70
$GPGGA,093800.30,4138.7705,N,00445.6801,W,1,14,0.7,714.01,M,53.80,M,,*71
$GPGGA,093800.40,4138.7705,N,00445.6801,W,1,14,0.7,714.01,M,53.80,M,,*76
$GPGGA,093800.50,4138.7705,N,00445.6801,W,1,14,0.7,714.01,M,53.80,M,,*77
$GPGGA,093800.60,4138.7705,N,00445.6801,W,1,14,0.7,714.01,M,53.80,M,,*74
$GPGGA,093800.70,4138.7705,N,00445.6801,W,1,14,0.7,714.01,M,53.80,M,,*75
$GPGGA,093800.80,4138.7705,N,00445.6801,W,1,14,0.7,714.01,M,53.80,M,,*7A
$GPGGA,093800.90,4138.7705,N,00445.6801,W,1,14,0.7,714.01,M,53.80,M,,*7B
$GPGGA,093801.00,4138.7705,N,00445.6801,W,1,14,0.7,714.01,M,53.80,M,,*73
$GPGGA,093801.10,4138.7705,N,00445.6801,W,1,14,0.7,714.01,M,53.80,M,,*72
$GPGGA,093801.20,4138.7705,N,00445.6801,W,1,14,0.7,714.01,M,53.80,M,,*71
$GPGGA,093801.30,4138.7705,N,00445.6801,W,1,14,0.7,714.01,M,53.80,M,,*70
$GPGGA,093801.40,4138.7705,N,00445.6801,W,1,14,0.7,714.01,M,53.80,M,,*77
$GPGGA,093801.50,4138.7705,N,00445.6801,W,1,14,0.7,714.01,M,53.80,M,,*76
$GPGGA,093801.60,4138.7705,N,00445.6801,W,1,14,0.7,714.01,M,53.80,M,,*75
$GPGGA,093801.70,4138.7705,N,00445.6801,W,1,14,0.7,714.01,M,53.80,M,,*74
$GPGGA,093801.80,4138.7705,N,00445.6801,W,1,14,0.7,714.01,M,53.80,M,,*7B
$GPGGA,093801.90,4138.7705,N,00445.6801,W,1,14,0.7,714.01,M,53.80,M,,*7A
$GPGGA,093802.00,4138.7705,N,00445.6801,W,1,14,0.7,714.01,M,53.80,M,,*70
$GPGGA,093802.10,4138.7705,N,00445.6801,W,1,14,0.7,714.01,M,53.80,M,,*71
$GPGGA,093802.20,4138.7705,N,00445.6801,W,1,14,0.7,714.01,M,53.80,M,,*72
$GPGGA,093802.30,4138.7705,N,00445.6801,W,1,14,0.7,714.01,M,53.80,M,,*73
$GPGGA,093802.40,4138.7705,N,00445.6801,W,1,14,0.7,714.01,M,53.80,M,,*74
$GPGGA,093802.50,4138.7705,N,00445.6801,W,1,14,0.7,714.01,M,53.80,M,,*75
$GPGGA,093802.60,4138.7705,N,00445.6801,W,1,14,0.7,714.01,M,53.80,M,,*76
$GPGGA,093802.70,4138.7705,N,00445.6801,W,1,14,0.7,714.01,M,53.80,M,,*77
$GPGGA,093802.80,4138.7705,N,00445.6801,W,1,14,0.7,714.01,M,53.80,M,,*78
$GPGGA,093802.90,4138.7705,N,00445.6801,W,1,14,0.7,714.01,M,53.80,M,,*79
$GPGGA,093803.00,4138.7705,N,00445.6801,W,1,14,0.7,714.01,M,53.80,M,,*71
$GPGGA,093803.10,4138.7705,N,00445.6801,W,1,14,0.7,714.01,M,53.80,M,,*70
$GPGGA,093803.20,4138.7705,N,00445.6801,W,1,14,0.7,714.01,M,53.80,M,,*73
$GPGGA,093803.30,4138.7705,N,00445.6801,W,1,14,0.7,714.01,M,53.80,M,,*72
$GPGGA,093803.40,4138.7705,N,00445.6801,W,1,14,0.7,714.01,M,53.80,M,,*75
$GPGGA,093803.50,4138.7705,N,00445.6801,W,1,14,0.7,714.01,M,53.80,M,,*74
$GPGGA,093803.60,4138.7705,N,00445.6801,W,1,14,0.7,714.01,M,53.80,M,,*77
$GPGGA,093803.70,4138.7705,N,00445.6801,W,1,14,0.7,714.01,M,53.80,M,,*76
$GPGGA,093803.80,4138.7705,N,00445.6801,W,1,14,0.7,714.01,M,53.80,M,,*79
$GPGGA,093803.90,4138.7705,N,00445.6801,W,1,14,0.7,714.01,M,53.80,M,,*78
$GPGGA,093804.00,4138.7705,N,00445.6801,W,1,14,0.7,714.01,M,53.80,M,,*76
$GPGGA,093804.10,4138.7705,N,00445.6801,W,1,14,0.7,714.01,M,53.80,M,,*77
$GPGGA,093804.20,4138.7705,N,00445.6801,W,1,14,0.7,714.01,M,53.80,M,,*74
$GPGGA,093804.30,4138.7705,N,00445.6801,W,1,14,0.7,713.97,M,53.80,M,,*7D
$GPGGA,093804.40,4138.7705,N,00445.6801,W,1,10,0.7,714.05,M,53.80,M,,*72
$GPGGA,093804.50,4138.7705,N,00445.6801,W,1,10,1.3,714.06,M,53.80,M,,*75
$GPGGA,093804.60,4138.7705,N,00445.6801,W,1,10,1.3,714.05,M,53.80,M,,*75
$GPGGA,093804.70,4138.7705,N,00445.6801,W,1,09,1.3,714.04,M,53.80,M,,*7D
$GPGGA,093804.80,4138.7705,N,00445.6801,W,1,09,1.3,713.99,M,53.80,M,,*71
$GPGGA,093804.90,4138.7705,N,00445.6801,W,1,09,1.3,713.96,M,53.80,M,,*7F
$GPGGA,093805.00,4138.7705,N,00445.6800,W,1,08,1.6,713.96,M,53.80,M,,*72
$GPGGA,093805.10,4138.7705,N,00445.6800,W,1,08,1.6,713.95,M,53.80,M,,*70
$GPGGA,093805.20,4138.7705,N,00445.6800,W,1,08,1.6,713.95,M,53.80,M,,*73
$GPGGA,093805.30,4138.7705,N,00445.6800,W,1,08,1.6,713.94,M,53.80,M,,*73
$GPGGA,093805.40,4138.7705,N,00445.6801,W,1,08,1.6,713.92,M,53.80,M,,*73
$GPGGA,093805.50,4138.7705,N,00445.6801,W,1,08,1.6,713.98,M,53.80,M,,*78
$GPGGA,093805.60,4138.7705,N,00445.6801,W,1,08,1.6,713.97,M,53.80,M,,*74
$GPGGA,093805.70,4138.7706,N,00445.6801,W,1,08,1.6,713.94,M,53.80,M,,*75
$GPGGA,093805.80,4138.7706,N,00445.6801,W,1,08,1.6,713.96,M,53.80,M,,*78
$GPGGA,093805.90,4138.7705,N,00445.6801,W,1,08,1.6,713.97,M,53.80,M,,*7B
$GPGGA,093806.00,4138.7705,N,00445.6801,W,1,09,1.4,713.97,M,53.80,M,,*72
$GPGGA,093806.10,4138.7705,N,00445.6801,W,1,08,1.4,713.97,M,53.80,M,,*72
$GPGGA,093806.20,4138.7705,N,00445.6801,W,1,09,1.4,713.97,M,53.80,M,,*70
$GPGGA,093806.30,4138.7705,N,00445.6801,W,1,08,1.4,713.96,M,53.80,M,,*71
$GPGGA,093806.40,4138.7706,N,00445.6802,W,1,11,1.4,713.93,M,53.80,M,,*7B
$GPGGA,093806.50,4138.7705,N,00445.6802,W,1,09,0.8,713.93,M,53.80,M,,*7D
$GPGGA,093806.60,4138.7705,N,00445.6802,W,1,11,0.8,713.93,M,53.80,M,,*77
$GPGGA,093806.70,4138.7705,N,00445.6802,W,1,12,0.8,713.93,M,53.80,M,,*75
$GPGGA,093806.80,4138.7705,N,00445.6802,W,1,12,0.8,713.94,M,53.80,M,,*7D
$GPGGA,093806.90,4138.7705,N,00445.6801,W,1,11,0.8,713.94,M,53.80,M,,*7C
$GPGGA,093807.00,4138.7705,N,00445.6801,W,1,11,0.9,713.95,M,53.80,M,,*74
$GPGGA,093807.10,4138.7705,N,00445.6801,W,1,12,0.9,713.95,M,53.80,M,,*76
$GPGGA,093807.20,4138.7705,N,00445.6801,W,1,12,0.9,713.94,M,53.80,M,,*74
$GPGGA,093807.30,4138.7705,N,00445.6801,W,1,11,0.9,713.95,M,53.80,M,,*77
$GPGGA,093807.40,4138.7705,N,00445.6802,W,1,13,0.9,713.97,M,53.80,M,,*73
$GPGGA,093807.50,4138.7705,N,00445.6802,W,1,13,0.8,713.96,M,53.80,M,,*72
$GPGGA,093807.60,4138.7705,N,00445.6802,W,1,13,0.8,713.96,M,53.80,M,,*71
$GPGGA,093807.70,4138.7706,N,00445.6802,W,1,13,0.8,713.97,M,53.80,M,,*72
$GPGGA,093807.80,4138.7706,N,00445.6802,W,1,14,0.8,713.97,M,53.80,M,,*7A
$GPGGA,093807.90,4138.7706,N,00445.6802,W,1,13,0.8,713.95,M,53.80,M,,*7E
$GPGGA,093808.00,4138.7705,N,00445.6802,W,1,14,0.7,713.96,M,53.80,M,,*70
$GPGGA,093808.10,4138.7705,N,00445.6802,W,1,14,0.7,713.96,M,53.80,M,,*71
$GPGGA,093808.20,4138.7705,N,00445.6802,W,1,14,0.7,713.98,M,53.80,M,,*7C
$GPGGA,093808.30,4138.7705,N,00445.6802,W,1,14,0.7,713.97,M,53.80,M,,*72
$GPGGA,093808.40,4138.7706,N,00445.6802,W,1,14,0.7,713.84,M,53.80,M,,*74
$GPGGA,093808.50,4138.7706,N,00445.6802,W,1,14,0.7,713.84,M,53.80,M,,*75
$GPGGA,093808.60,4138.7706,N,00445.6802,W,1,14,0.7,713.84,M,53.80,M,,*76
$GPGGA,093808.70,4138.7706,N,00445.6802,W,1,14,0.7,713.84,M,53.80,M,,*77
$GPGGA,093808.80,4138.7706,N,00445.6802,W,1,14,0.7,713.84,M,53.80,M,,*78
$GPGGA,093808.90,4138.7706,N,00445.6802,W,1,14,0.7,713.84,M,53.80,M,,*79
$GPGGA,093809.00,4138.7706,N,00445.6802,W,1,14,0.7,713.84,M,53.80,M,,*71
$GPGGA,093809.10,4138.7706,N,00445.6802,W,1,14,0.7,713.84,M,53.80,M,,*70
$GPGGA,093809.20,4138.7706,N,00445.6802,W,1,14,0.7,713.84,M,53.80,M,,*73
$GPGGA,093809.30,4138.7706,N,00445.6802,W,1,14,0.7,713.84,M,53.80,M,,*72
$GPGGA,093809.40,4138.7706,N,00445.6802,W,1,14,0.7,713.84,M,53.80,M,,*75
$GPGGA,093809.50,4138.7706,N,00445.6802,W,1,14,0.7,713.84,M,53.80,M,,*74
$GPGGA,093809.60,4138.7706,N,00445.6802,W,1,14,0.7,713.84,M,53.80,M,,*77
$GPGGA,093809.70,4138.7706,N,00445.6802,W,1,14,0.7,713.84,M,53.80,M,,*76
$GPGGA,093809.80,4138.7706,N,00445.6802,W,1,14,0.7,713.84,M,53.80,M,,*79
$GPGGA,093809.90,4138.7706,N,00445.6802,W,1,14,0.7,713.84,M,53.80,M,,*78
$GPGGA,093810.00,4138.7706,N,00445.6802,W,1,14,0.7,713.84,M,53.80,M,,*79
$GPGGA,093810.10,4138.7706,N,00445.6802,W,1,14,0.7,713.84,M,53.80,M,,*78
$GPGGA,093810.20,4138.7705,N,00445.6802,W,1,14,0.7,713.84,M,53.80,M,,*78
$GPGGA,093810.30,4138.7705,N,00445.6802,W,1,14,0.7,713.84,M,53.80,M,,*79
$GPGGA,093810.40,4138.7705,N,00445.6802,W,1,14,0.7,713.84,M,53.80,M,,*7E
$GPGGA,093810.50,4138.7706,N,00445.6802,W,1,14,0.7,713.84,M,53.80,M,,*7C
$GPGGA,093810.60,4138.7706,N,00445.6803,W,1,14,0.7,713.84,M,53.80,M,,*7E
$GPGGA,093810.70,4138.7706,N,00445.6803,W,1,14,0.7,713.84,M,53.80,M,,*7F
$GPGGA,093810.80,4138.7706,N,00445.6803,W,1,14,0.7,713.84,M,53.80,M,,*70
$GPGGA,093810.90,4138.7706,N,00445.6803,W,1,14,0.7,713.84,M,53.80,M,,*71
$GPGGA,093811.00,4138.7706,N,00445.6804,W,1,14,0.7,713.84,M,53.80,M,,*7E
$GPGGA,093811.10,4138.7706,N,00445.6804,W,1,14,0.7,713.84,M,53.80,M,,*7F
$GPGGA,093811.20,4138.7706,N,00445.6805,W,1,14,0.7,713.84,M,53.80,M,,*7D
$GPGGA,093811.30,4138.7706,N,00445.6805,W,1,14,0.7,713.84,M,53.80,M,,*7C
$GPGGA,093811.40,4138.7706,N,00445.6806,W,1,14,0.7,713.85,M,53.80,M,,*79
$GPGGA,093811.50,4138.7706,N,00445.6806,W,1,14,0.7,713.85,M,53.80,M,,*78
$GPGGA,093811.60,4138.7706,N,00445.6807,W,1,14,0.7,713.85,M,53.80,M,,*7A
$GPGGA,093811.70,4138.7706,N,00445.6807,W,1,14,0.7,713.85,M,53.80,M,,*7B
$GPGGA,093811.80,4138.7706,N,00445.6808,W,1,14,0.7,713.85,M,53.80,M,,*7B
$GPGGA,093811.90,4138.7706,N,00445.6809,W,1,14,0.7,713.86,M,53.80,M,,*78
$GPGGA,093812.00,4138.7706,N,00445.6809,W,1,14,0.7,713.86,M,53.80,M,,*72
$GPGGA,093812.10,4138.7706,N,00445.6810,W,1,14,0.7,713.86,M,53.80,M,,*7B
$GPGGA,093812.20,4138.7706,N,00445.6811,W,1,14,0.7,713.87,M,53.80,M,,*78
$GPGGA,093812.30,4138.7706,N,00445.6812,W,1,14,0.7,713.88,M,53.80,M,,*75
$GPGGA,093812.40,4138.7706,N,00445.6812,W,1,14,0.7,713.88,M,53.80,M,,*72
$GPGGA,093812.50,4138.7706,N,00445.6813,W,1,14,0.7,713.88,M,53.80,M,,*72
$GPGGA,093812.60,4138.7706,N,00445.6814,W,1,14,0.7,713.88,M,53.80,M,,*76
$GPGGA,093812.70,4138.7706,N,00445.6815,W,1,14,0.7,713.89,M,53.80,M,,*77
$GPGGA,093812.80,4138.7706,N,00445.6816,W,1,14,0.7,713.88,M,53.80,M,,*7A
$GPGGA,093812.90,4138.7706,N,00445.6817,W,1,14,0.7,713.90,M,53.80,M,,*73
$GPGGA,093813.00,4138.7706,N,00445.6818,W,1,14,0.7,713.90,M,53.80,M,,*74
$GPGGA,093813.10,4138.7706,N,00445.6819,W,1,14,0.7,713.90,M,53.80,M,,*74
$GPGGA,093813.20,4138.7706,N,00445.6820,W,1,14,0.7,713.91,M,53.80,M,,*7C
$GPGGA,093813.30,4138.7706,N,00445.6821,W,1,14,0.7,713.91,M,53.80,M,,*7C
$GPGGA,093813.40,4138.7706,N,00445.6822,W,1,14,0.7,713.91,M,53.80,M,,*78
$GPGGA,093813.50,4138.7706,N,00445.6823,W,1,14,0.7,713.91,M,53.80,M,,*78
$GPGGA,093813.60,4138.7705,N,00445.6825,W,1,14,0.7,713.92,M,53.80,M,,*7D
$GPGGA,093813.70,4138.7705,N,00445.6826,W,1,14,0.7,713.92,M,53.80,M,,*7F
$GPGGA,093813.80,4138.7705,N,00445.6827,W,1,14,0.7,713.92,M,53.80,M,,*71
$GPGGA,093813.90,4138.7705,N,00445.6828,W,1,14,0.7,713.93,M,53.80,M,,*7E
$GPGGA,093814.00,4138.7704,N,00445.6829,W,1,14,0.7,713.93,M,53.80,M,,*70
$GPGGA,093814.10,4138.7704,N,00445.6831,W,1,14,0.7,713.93,M,53.80,M,,*78
$GPGGA,093814.20,4138.7704,N,00445.6832,W,1,14,0.7,713.96,M,53.80,M,,*7D
$GPGGA,093814.30,4138.7703,N,00445.6833,W,1,14,0.7,713.97,M,53.80,M,,*7B
$GPGGA,093814.40,4138.7703,N,00445.6834,W,1,14,0.7,713.98,M,53.80,M,,*74
$GPGGA,093814.50,4138.7702,N,00445.6835,W,1,14,0.7,713.98,M,53.80,M,,*75
$GPGGA,093814.60,4138.7702,N,00445.6836,W,1,14,0.7,713.98,M,53.80,M,,*75
$GPGGA,093814.70,4138.7702,N,00445.6837,W,1,14,0.7,713.99,M,53.80,M,,*74
$GPGGA,093814.80,4138.7701,N,00445.6838,W,1,14,0.7,713.98,M,53.80,M,,*76
$GPGGA,093814.90,4138.7701,N,00445.6838,W,1,14,0.7,713.99,M,53.80,M,,*76
$GPGGA,093815.00,4138.7700,N,00445.6839,W,1,14,0.7,714.00,M,53.80,M,,*79
$GPGGA,093815.10,4138.7700,N,00445.6840,W,1,14,0.7,714.00,M,53.80,M,,*76
$GPGGA,093815.20,4138.7700,N,00445.6840,W,1,14,0.7,714.02,M,53.80,M,,*77
$GPGGA,093815.30,4138.7699,N,00445.6841,W,1,14,0.7,714.03,M,53.80,M,,*77
$GPGGA,093815.40,4138.7699,N,00445.6842,W,1,14,0.7,714.03,M,53.80,M,,*73
$GPGGA,093815.50,4138.7698,N,00445.6842,W,1,14,0.7,714.03,M,53.80,M,,*73
$GPGGA,093815.60,4138.7698,N,00445.6843,W,1,14,0.7,714.04,M,53.80,M,,*76
$GPGGA,093815.70,4138.7698,N,00445.6843,W,1,14,0.7,714.04,M,53.80,M,,*77
$GPGGA,093815.80,4138.7697,N,00445.6843,W,1,14,0.7,714.05,M,53.80,M,,*76
$GPGGA,093815.90,4138.7697,N,00445.6844,W,1,14,0.7,714.04,M,53.80,M,,*71
$GPGGA,093816.00,4138.7697,N,00445.6844,W,1,14,0.7,714.05,M,53.80,M,,*7A
$GPGGA,093816.10,4138.7697,N,00445.6844,W,1,14,0.7,714.05,M,53.80,M,,*7B
$GPGGA,093816.20,4138.7697,N,00445.6844,W,1,14,0.7,714.08,M,53.80,M,,*75
$GPGGA,093816.30,4138.7696,N,00445.6844,W,1,14,0.7,714.08,M,53.80,M,,*75
$GPGGA,093816.40,4138.7696,N,00445.6844,W,1,14,0.7,714.08,M,53.80,M,,*72
$GPGGA,093816.50,4138.7696,N,00445.6844,W,1,14,0.7,714.09,M,53.80,M,,*72
$GPGGA,093816.60,4138.7696,N,00445.6844,W,1,14,0.7,714.08,M,53.80,M,,*70
$GPGGA,093816.70,4138.7696,N,00445.6844,W,1,14,0.7,714.08,M,53.80,M,,*71
$GPGGA,093816.80,4138.7696,N,00445.6844,W,1,14,0.7,714.08,M,53.80,M,,*7E
$GPGGA,093816.90,4138.7696,N,00445.6844,W,1,14,0.7,714.08,M,53.80,M,,*7F
$GPGGA,093817.00,4138.7696,N,00445.6844,W,1,14,0.7,714.08,M,53.80,M,,*77
$GPGGA,093817.10,4138.7696,N,00445.6844,W,1,14,0.7,714.08,M,53.80,M,,*76
$GPGGA,093817.20,4138.7696,N,00445.6844,W,1,14,0.7,714.08,M,53.80,M,,*75
$GPGGA,093817.30,4138.7696,N,00445.6844,W,1,14,0.7,714.13,M,53.80,M,,*7E
$GPGGA,093817.40,4138.7696,N,00445.6844,W,1,14,0.7,714.12,M,53.80,M,,*78
$GPGGA,093817.50,4138.7696,N,00445.6844,W,1,14,0.7,714.12,M,53.80,M,,*79
$GPGGA,093817.60,4138.7696,N,00445.6844,W,1,14,0.7,714.12,M,53.80,M,,*7A
$GPGGA,093817.70,4138.7697,N,00445.6844,W,1,14,0.7,714.12,M,53.80,M,,*7A
$GPGGA,093817.80,4138.7697,N,00445.6844,W,1,14,0.7,714.12,M,53.80,M,,*75
$GPGGA,093817.90,4138.7697,N,00445.6844,W,1,14,0.7,714.12,M,53.80,M,,*74
$GPGGA,093818.00,4138.7697,N,00445.6844,W,1,14,0.7,714.12,M,53.80,M,,*72
$GPGGA,093818.10,4138.7697,N,00445.6844,W,1,14,0.7,714.12,M,53.80,M,,*73
$GPGGA,093818.20,4138.7697,N,00445.6844,W,1,14,0.7,714.12,M,53.80,M,,*70
$GPGGA,093818.30,4138.7697,N,00445.6843,W,1,14,0.7,714.16,M,53.80,M,,*72
$GPGGA,093818.40,4138.7697,N,00445.6843,W,1,14,0.7,714.16,M,53.80,M,,*75
$GPGGA,093818.50,4138.7697,N,00445.6843,W,1,14,0.7,714.16,M,53.80,M,,*74
$GPGGA,093818.60,4138.7698,N,00445.6843,W,1,14,0.7,714.15,M,53.80,M,,*7B
$GPGGA,093818.70,4138.7698,N,00445.6843,W,1,14,0.7,714.15,M,53.80,M,,*7A
$GPGGA,093818.80,4138.7698,N,00445.6843,W,1,14,0.7,714.15,M,53.80,M,,*75
$GPGGA,093818.90,4138.7698,N,00445.6842,W,1,14,0.7,714.15,M,53.80,M,,*75
$GPGGA,093819.00,4138.7699,N,00445.6842,W,1,14,0.7,714.14,M,53.80,M,,*7D
$GPGGA,093819.10,4138.7699,N,00445.6842,W,1,14,0.7,714.14,M,53.80,M,,*7C
$GPGGA,093819.20,4138.7700,N,00445.6842,W,1,14,0.7,714.14,M,53.80,M,,*7E
$GPGGA,093819.30,4138.7700,N,00445.6841,W,1,14,0.7,714.18,M,53.80,M,,*70
$GPGGA,093819.40,4138.7701,N,00445.6841,W,1,14,0.7,714.17,M,53.80,M,,*79
$GPGGA,093819.50,4138.7701,N,00445.6840,W,1,14,0.7,714.17,M,53.80,M,,*79
$GPGGA,093819.60,4138.7702,N,00445.6840,W,1,14,0.7,714.17,M,53.80,M,,*79
$GPGGA,093819.70,4138.7702,N,00445.6840,W,1,14,0.7,714.16,M,53.80,M,,*79
$GPGGA,093819.80,4138.7703,N,00445.6839,W,1,14,0.7,714.16,M,53.80,M,,*79
$GPGGA,093819.90,4138.7704,N,00445.6839,W,1,14,0.7,714.15,M,53.80,M,,*7C
$GPGGA,093820.00,4138.7705,N,00445.6838,W,1,14,0.7,714.15,M,53.80,M,,*7F
$GPGGA,093820.10,4138.7705,N,00445.6838,W,1,14,0.7,714.15,M,53.80,M,,*7E
$GPGGA,093820.20,4138.7706,N,00445.6837,W,1,14,0.7,714.14,M,53.80,M,,*70
$GPGGA,093820.30,4138.7707,N,00445.6837,W,1,14,0.7,714.17,M,53.80,M,,*73
$GPGGA,093820.40,4138.7708,N,00445.6836,W,1,14,0.7,714.16,M,53.80,M,,*7B
$GPGGA,093820.50,4138.7709,N,00445.6836,W,1,14,0.7,714.16,M,53.80,M,,*7B
$GPGGA,093820.60,4138.7711,N,00445.6835,W,1,14,0.7,714.15,M,53.80,M,,*71
$GPGGA,093820.70,4138.7712,N,00445.6835,W,1,14,0.7,714.15,M,53.80,M,,*73
$GPGGA,093820.80,4138.7713,N,00445.6834,W,1,14,0.7,714.14,M,53.80,M,,*7D
$GPGGA,093820.90,4138.7714,N,00445.6834,W,1,14,0.7,714.13,M,53.80,M,,*7C
$GPGGA,093821.00,4138.7716,N,00445.6834,W,1,14,0.7,714.12,M,53.80,M,,*77
$GPGGA,093821.10,4138.7717,N,00445.6833,W,1,14,0.7,714.12,M,53.80,M,,*70
$GPGGA,093821.20,4138.7719,N,00445.6833,W,1,14,0.7,714.11,M,53.80,M,,*7E
$GPGGA,093821.30,4138.7720,N,00445.6832,W,1,14,0.7,714.14,M,53.80,M,,*71
$GPGGA,093821.40,4138.7722,N,00445.6832,W,1,14,0.7,714.12,M,53.80,M,,*72
$GPGGA,093821.50,4138.7723,N,00445.6832,W,1,14,0.7,714.12,M,53.80,M,,*72
$GPGGA,093821.60,4138.7725,N,00445.6832,W,1,14,0.7,714.11,M,53.80,M,,*74
$GPGGA,093821.70,4138.7726,N,00445.6831,W,1,14,0.7,714.10,M,53.80,M,,*74
$GPGGA,093821.80,4138.7728,N,00445.6831,W,1,14,0.7,714.10,M,53.80,M,,*75
$GPGGA,093821.90,4138.7730,N,00445.6831,W,1,14,0.7,714.09,M,53.80,M,,*75
$GPGGA,093822.00,4138.7731,N,00445.6831,W,1,14,0.7,714.08,M,53.80,M,,*7F
$GPGGA,093822.10,4138.7733,N,00445.6831,W,1,14,0.7,714.07,M,53.80,M,,*73
$GPGGA,093822.20,4138.7735,N,00445.6831,W,1,14,0.7,714.06,M,53.80,M,,*77
$GPGGA,093822.30,4138.7737,N,00445.6831,W,1,14,0.7,714.09,M,53.80,M,,*7B
$GPGGA,093822.40,4138.7739,N,00445.6831,W,1,14,0.7,714.07,M,53.80,M,,*7C
$GPGGA,093822.50,4138.7740,N,00445.6831,W,1,14,0.7,714.07,M,53.80,M,,*73
$GPGGA,093822.60,4138.7742,N,00445.6831,W,1,14,0.7,714.06,M,53.80,M,,*73
$GPGGA,093822.70,4138.7744,N,00445.6831,W,1,14,0.7,714.05,M,53.80,M,,*77
$GPGGA,093822.80,4138.7746,N,00445.6831,W,1,14,0.7,714.03,M,53.80,M,,*7C
$GPGGA,093822.90,4138.7748,N,00445.6831,W,1,14,0.7,714.03,M,53.80,M,,*73
$GPGGA,093823.00,4138.7751,N,00445.6831,W,1,14,0.7,714.02,M,53.80,M,,*72
$GPGGA,093823.10,4138.7753,N,00445.6831,W,1,14,0.7,714.01,M,53.80,M,,*72
$GPGGA,093823.20,4138.7755,N,00445.6831,W,1,14,0.7,714.00,M,53.80,M,,*76
$GPGGA,093823.30,4138.7757,N,00445.6831,W,1,14,0.7,714.02,M,53.80,M,,*77
$GPGGA,093823.40,4138.7759,N,00445.6831,W,1,14,0.7,714.00,M,53.80,M,,*7C
$GPGGA,093823.50,4138.7761,N,00445.6831,W,1,14,0.7,713.99,M,53.80,M,,*71
$GPGGA,093823.60,4138.7764,N,00445.6831,W,1,14,0.7,713.98,M,53.80,M,,*76
$GPGGA,093823.70,4138.7766,N,00445.6831,W,1,14,0.7,713.97,M,53.80,M,,*7A
$GPGGA,093823.80,4138.7768,N,00445.6831,W,1,14,0.7,713.97,M,53.80,M,,*7B
$GPGGA,093823.90,4138.7771,N,00445.6831,W,1,14,0.7,713.95,M,53.80,M,,*70
$GPGGA,093824.00,4138.7773,N,00445.6832,W,1,14,0.7,713.94,M,53.80,M,,*7E
$GPGGA,093824.10,4138.7776,N,00445.6832,W,1,14,0.7,713.93,M,53.80,M,,*7D
$GPGGA,093824.20,4138.7778,N,00445.6832,W,1,14,0.7,713.92,M,53.80,M,,*71
$GPGGA,093824.30,4138.7781,N,00445.6832,W,1,14,0.7,713.93,M,53.80,M,,*77
$GPGGA,093824.40,4138.7783,N,00445.6832,W,1,14,0.7,713.92,M,53.80,M,,*73
$GPGGA,093824.50,4138.7786,N,00445.6832,W,1,14,0.7,713.91,M,53.80,M,,*74
$GPGGA,093824.60,4138.7789,N,00445.6832,W,1,14,0.7,713.89,M,53.80,M,,*71
$GPGGA,093824.70,4138.7791,N,00445.6832,W,1,14,0.7,713.88,M,53.80,M,,*78
$GPGGA,093824.80,4138.7794,N,00445.6832,W,1,14,0.7,713.86,M,53.80,M,,*7C
$GPGGA,093824.90,4138.7797,N,00445.6833,W,1,14,0.7,713.86,M,53.80,M,,*7F
$GPGGA,093825.00,4138.7800,N,00445.6833,W,1,14,0.7,713.84,M,53.80,M,,*74
$GPGGA,093825.10,4138.7802,N,00445.6833,W,1,14,0.7,713.82,M,53.80,M,,*71
$GPGGA,093825.20,4138.7805,N,00445.6833,W,1,14,0.7,713.81,M,53.80,M,,*76
$GPGGA,093825.30,4138.7808,N,00445.6833,W,1,14,0.7,713.82,M,53.80,M,,*79
$GPGGA,093825.40,4138.7810,N,00445.6833,W,1,14,0.7,713.80,M,53.80,M,,*75
$GPGGA,093825.50,4138.7813,N,00445.6833,W,1,14,0.7,713.79,M,53.80,M,,*71
$GPGGA,093825.60,4138.7816,N,00445.6833,W,1,14,0.7,713.78,M,53.80,M,,*76
$GPGGA,093825.70,4138.7819,N,00445.6833,W,1,14,0.7,713.76,M,53.80,M,,*76
$GPGGA,093825.80,4138.7821,N,00445.6834,W,1,14,0.7,713.75,M,53.80,M,,*76
$GPGGA,093825.90,4138.7824,N,00445.6834,W,1,14,0.7,713.73,M,53.80,M,,*74
$GPGGA,093826.00,4138.7827,N,00445.6834,W,1,14,0.7,713.73,M,53.80,M,,*7D
$GPGGA,093826.10,4138.7829,N,00445.6834,W,1,14,0.7,713.71,M,53.80,M,,*70
$GPGGA,093826.20,4138.7832,N,00445.6834,W,1,14,0.7,713.70,M,53.80,M,,*78
$GPGGA,093826.30,4138.7835,N,00445.6834,W,1,14,0.7,713.70,M,53.80,M,,*7E
$GPGGA,093826.40,4138.7838,N,00445.6834,W,1,14,0.7,713.69,M,53.80,M,,*7C
$GPGGA,093826.50,4138.7840,N,00445.6835,W,1,14,0.7,713.67,M,53.80,M,,*7D
$GPGGA,093826.60,4138.7843,N,00445.6835,W,1,14,0.7,713.67,M,53.80,M,,*7D
$GPGGA,093826.70,4138.7846,N,00445.6835,W,1,14,0.7,713.65,M,53.80,M,,*7B
$GPGGA,093826.80,4138.7849,N,00445.6835,W,1,14,0.7,713.64,M,53.80,M,,*7A
$GPGGA,093826.90,4138.7851,N,00445.6836,W,1,14,0.7,713.63,M,53.80,M,,*76
$GPGGA,093827.00,4138.7854,N,00445.6836,W,1,14,0.7,713.62,M,53.80,M,,*7A
$GPGGA,093827.10,4138.7857,N,00445.6836,W,1,14,0.7,713.61,M,53.80,M,,*7B
$GPGGA,093827.20,4138.7860,N,00445.6836,W,1,14,0.7,713.59,M,53.80,M,,*77
$GPGGA,093827.30,4138.7862,N,00445.6837,W,1,14,0.7,713.59,M,53.80,M,,*75
$GPGGA,093827.40,4138.7865,N,00445.6837,W,1,14,0.7,713.58,M,53.80,M,,*74
$GPGGA,093827.50,4138.7868,N,00445.6837,W,1,14,0.7,713.57,M,53.80,M,,*77
$GPGGA,093827.60,4138.7871,N,00445.6837,W,1,14,0.7,713.56,M,53.80,M,,*7D
$GPGGA,093827.70,4138.7874,N,00445.6838,W,1,14,0.7,713.54,M,53.80,M,,*74
$GPGGA,093827.80,4138.7876,N,00445.6838,W,1,14,0.7,713.53,M,53.80,M,,*7E
$GPGGA,093827.90,4138.7879,N,00445.6838,W,1,14,0.7,713.53,M,53.80,M,,*70
$GPGGA,093828.00,4138.7882,N,00445.6839,W,1,14,0.7,713.51,M,53.80,M,,*71
$GPGGA,093828.10,4138.7885,N,00445.6839,W,1,14,0.7,713.49,M,53.80,M,,*7E
$GPGGA,093828.20,4138.7888,N,00445.6839,W,1,14,0.7,713.48,M,53.80,M,,*71
$GPGGA,093828.30,4138.7890,N,00445.6839,W,1,14,0.7,713.49,M,53.80,M,,*78
$GPGGA,093828.40,4138.7893,N,00445.6839,W,1,14,0.7,713.47,M,53.80,M,,*72
$GPGGA,093828.50,4138.7896,N,00445.6840,W,1,14,0.7,713.45,M,53.80,M,,*7A
$GPGGA,093828.60,4138.7899,N,00445.6840,W,1,14,0.7,713.44,M,53.80,M,,*77
$GPGGA,093828.70,4138.7901,N,00445.6840,W,1,14,0.7,713.43,M,53.80,M,,*71
$GPGGA,093828.80,4138.7904,N,00445.6840,W,1,14,0.7,713.41,M,53.80,M,,*79
$GPGGA,093828.90,4138.7906,N,00445.6840,W,1,14,0.7,713.40,M,53.80,M,,*7B
$GPGGA,093829.00,4138.7909,N,00445.6841,W,1,14,0.7,713.39,M,53.80,M,,*73
$GPGGA,093829.10,4138.7911,N,00445.6841,W,1,14,0.7,713.38,M,53.80,M,,*7A
$GPGGA,093829.20,4138.7913,N,00445.6841,W,1,14,0.7,713.37,M,53.80,M,,*74
$GPGGA,093829.30,4138.7915,N,00445.6841,W,1,14,0.7,713.37,M,53.80,M,,*73
$GPGGA,093829.40,4138.7917,N,00445.6841,W,1,14,0.7,713.37,M,53.80,M,,*76
$GPGGA,093829.50,4138.7919,N,00445.6841,W,1,14,0.7,713.35,M,53.80,M,,*7B
$GPGGA,093829.60,4138.7920,N,00445.6841,W,1,14,0.7,713.35,M,53.80,M,,*72
$GPGGA,093829.70,4138.7922,N,00445.6841,W,1,14,0.7,713.34,M,53.80,M,,*70
$GPGGA,093829.80,4138.7924,N,00445.6841,W,1,14,0.7,713.33,M,53.80,M,,*7E
$GPGGA,093829.90,4138.7925,N,00445.6841,W,1,14,0.7,713.33,M,53.80,M,,*7E
$GPGGA,093830.00,4138.7927,N,00445.6841,W,1,14,0.7,713.31,M,53.80,M,,*7F
$GPGGA,093830.10,4138.7929,N,00445.6841,W,1,14,0.7,713.30,M,53.80,M,,*71
$GPGGA,093830.20,4138.7930,N,00445.6841,W,1,14,0.7,713.30,M,53.80,M,,*7A
$GPGGA,093830.30,4138.7932,N,00445.6841,W,1,14,0.7,713.30,M,53.80,M,,*79
$GPGGA,093830.40,4138.7934,N,00445.6841,W,1,14,0.7,713.29,M,53.80,M,,*70
$GPGGA,093830.50,4138.7935,N,00445.6841,W,1,14,0.7,713.28,M,53.80,M,,*71
$GPGGA,093830.60,4138.7937,N,00445.6841,W,1,14,0.7,713.27,M,53.80,M,,*7F
$GPGGA,093830.70,4138.7939,N,00445.6841,W,1,14,0.7,713.27,M,53.80,M,,*70
$GPGGA,093830.80,4138.7940,N,00445.6841,W,1,14,0.7,713.25,M,53.80,M,,*73
$GPGGA,093830.90,4138.7942,N,00445.6841,W,1,14,0.7,713.24,M,53.80,M,,*71
$GPGGA,093831.00,4138.7944,N,00445.6841,W,1,14,0.7,713.24,M,53.80,M,,*7F
$GPGGA,093831.10,4138.7945,N,00445.6841,W,1,14,0.7,713.23,M,53.80,M,,*78
$GPGGA,093831.20,4138.7947,N,00445.6841,W,1,14,0.7,713.22,M,53.80,M,,*78
$GPGGA,093831.30,4138.7949,N,00445.6840,W,1,14,0.7,713.22,M,53.80,M,,*76
$GPGGA,093831.40,4138.7950,N,00445.6840,W,1,14,0.7,713.22,M,53.80,M,,*79
$GPGGA,093831.50,4138.7952,N,00445.6840,W,1,14,0.7,713.21,M,53.80,M,,*79
$GPGGA,093831.60,4138.7953,N,00445.6840,W,1,14,0.7,713.20,M,53.80,M,,*7A
$GPGGA,093831.70,4138.7955,N,00445.6840,W,1,14,0.7,713.19,M,53.80,M,,*77
$GPGGA,093831.80,4138.7956,N,00445.6840,W,1,14,0.7,713.18,M,53.80,M,,*7A
$GPGGA,093831.90,4138.7958,N,00445.6840,W,1,14,0.7,713.17,M,53.80,M,,*7A
$GPGGA,093832.00,4138.7960,N,00445.6840,W,1,14,0.7,713.17,M,53.80,M,,*7B
$GPGGA,093832.10,4138.7961,N,00445.6840,W,1,14,0.7,713.15,M,53.80,M,,*79
$GPGGA,093832.20,4138.7962,N,00445.6840,W,1,14,0.7,713.15,M,53.80,M,,*79
$GPGGA,093832.30,4138.7964,N,00445.6840,W,1,14,0.7,713.15,M,53.80,M,,*7E
$GPGGA,093832.40,4138.7965,N,00445.6839,W,1,14,0.7,713.14,M,53.80,M,,*77
$GPGGA,093832.50,4138.7966,N,00445.6839,W,1,14,0.7,713.14,M,53.80,M,,*75
$GPGGA,093832.60,4138.7967,N,00445.6839,W,1,14,0.7,713.13,M,53.80,M,,*70
$GPGGA,093832.70,4138.7969,N,00445.6839,W,1,14,0.7,713.13,M,53.80,M,,*7F
$GPGGA,093832.80,4138.7970,N,00445.6839,W,1,14,0.7,713.12,M,53.80,M,,*79
$GPGGA,093832.90,4138.7971,N,00445.6839,W,1,14,0.7,713.12,M,53.80,M,,*79
$GPGGA,093833.00,4138.7972,N,00445.6839,W,1,14,0.7,713.11,M,53.80,M,,*71
$GPGGA,093833.10,4138.7972,N,00445.6839,W,1,14,0.7,713.11,M,53.80,M,,*70
$GPGGA,093833.20,4138.7973,N,00445.6839,W,1,14,0.7,713.11,M,53.80,M,,*72
$GPGGA,093833.30,4138.7974,N,00445.6839,W,1,14,0.7,713.11,M,53.80,M,,*74
$GPGGA,093833.40,4138.7975,N,00445.6839,W,1,14,0.7,713.11,M,53.80,M,,*72
$GPGGA,093833.50,4138.7976,N,00445.6839,W,1,14,0.7,713.10,M,53.80,M,,*71
$GPGGA,093833.60,4138.7976,N,00445.6839,W,1,14,0.7,713.09,M,53.80,M,,*7A
$GPGGA,093833.70,4138.7977,N,00445.6839,W,1,14,0.7,713.10,M,53.80,M,,*72
$GPGGA,093833.80,4138.7978,N,00445.6839,W,1,14,0.7,713.09,M,53.80,M,,*7A
$GPGGA,093833.90,4138.7978,N,00445.6839,W,1,14,0.7,713.09,M,53.80,M,,*7B
$GPGGA,093834.00,4138.7979,N,00445.6839,W,1,14,0.7,713.09,M,53.80,M,,*74
$GPGGA,093834.10,4138.7979,N,00445.6839,W,1,14,0.7,713.08,M,53.80,M,,*74
$GPGGA,093834.20,4138.7980,N,00445.6839,W,1,14,0.7,713.08,M,53.80,M,,*71
$GPGGA,093834.30,4138.7980,N,00445.6838,W,1,14,0.7,713.08,M,53.80,M,,*71
$GPGGA,093834.40,4138.7981,N,00445.6838,W,1,14,0.7,713.09,M,53.80,M,,*76
$GPGGA,093834.50,4138.7981,N,00445.6838,W,1,14,0.7,713.08,M,53.80,M,,*76
$GPGGA,093834.60,4138.7981,N,00445.6838,W,1,14,0.7,713.08,M,53.80,M,,*75
$GPGGA,093834.70,4138.7982,N,00445.6838,W,1,14,0.7,713.08,M,53.80,M,,*77
$GPGGA,093834.80,4138.7982,N,00445.6838,W,1,14,0.7,713.08,M,53.80,M,,*78
$GPGGA,093834.90,4138.7982,N,00445.6838,W,1,14,0.7,713.08,M,53.80,M,,*79
$GPGGA,093835.00,4138.7982,N,00445.6838,W,1,14,0.7,713.07,M,53.80,M,,*7E
$GPGGA,093835.10,4138.7982,N,00445.6838,W,1,14,0.7,713.07,M,53.80,M,,*7F
$GPGGA,093835.20,4138.7982,N,00445.6838,W,1,14,0.7,713.07,M,53.80,M,,*7C
$GPGGA,093835.30,4138.7982,N,00445.6838,W,1,14,0.7,713.09,M,53.80,M,,*73
$GPGGA,093835.40,4138.7982,N,00445.6838,W,1,14,0.7,713.09,M,53.80,M,,*74
$GPGGA,093835.50,4138.7982,N,00445.6838,W,1,14,0.7,713.08,M,53.80,M,,*74
$GPGGA,093835.60,4138.7982,N,00445.6838,W,1,14,0.7,713.08,M,53.80,M,,*77
$GPGGA,093835.70,4138.7982,N,00445.6838,W,1,14,0.7,713.08,M,53.80,M,,*76
$GPGGA,093835.80,4138.7982,N,00445.6838,W,1,14,0.7,713.08,M,53.80,M,,*79
$GPGGA,093835.90,4138.7982,N,00445.6838,W,1,14,0.7,713.08,M,53.80,M,,*78
$GPGGA,093836.00,4138.7982,N,00445.6838,W,1,14,0.7,713.08,M,53.80,M,,*72
$GPGGA,093836.10,4138.7982,N,00445.6838,W,1,14,0.7,713.08,M,53.80,M,,*73
$GPGGA,093836.20,4138.7982,N,00445.6838,W,1,14,0.7,713.08,M,53.80,M,,*70
$GPGGA,093836.30,4138.7982,N,00445.6838,W,1,14,0.7,713.08,M,53.80,M,,*71
$GPGGA,093836.40,4138.7982,N,00445.6838,W,1,14,0.7,713.08,M,53.80,M,,*76
$GPGGA,093836.50,4138.7982,N,00445.6838,W,1,14,0.7,713.08,M,53.80,M,,*77
$GPGGA,093836.60,4138.7982,N,00445.6838,W,1,14,0.7,713.08,M,53.80,M,,*74
$GPGGA,093836.70,4138.7982,N,00445.6838,W,1,14,0.7,713.08,M,53.80,M,,*75
$GPGGA,093836.80,4138.7982,N,00445.6838,W,1,14,0.7,713.08,M,53.80,M,,*7A
$GPGGA,093836.90,4138.7982,N,00445.6838,W,1,14,0.7,713.08,M,53.80,M,,*7B
$GPGGA,093837.00,4138.7982,N,00445.6838,W,1,14,0.7,713.08,M,53.80,M,,*73
$GPGGA,093837.10,4138.7982,N,00445.6838,W,1,14,0.7,713.08,M,53.80,M,,*72
$GPGGA,093837.20,4138.7982,N,00445.6838,W,1,14,0.7,713.08,M,53.80,M,,*71
$GPGGA,093837.30,4138.7982,N,00445.6838,W,1,14,0.7,713.08,M,53.80,M,,*70
$GPGGA,093837.40,4138.7982,N,00445.6838,W,1,14,0.7,713.08,M,53.80,M,,*77
$GPGGA,093837.50,4138.7982,N,00445.6838,W,1,14,0.7,713.08,M,53.80,M,,*76
$GPGGA,093837.60,4138.7982,N,00445.6838,W,1,14,0.7,713.08,M,53.80,M,,*75
$GPGGA,093837.70,4138.7982,N,00445.6838,W,1,14,0.7,713.08,M,53.80,M,,*74
$GPGGA,093837.80,4138.7982,N,00445.6838,W,1,14,0.7,713.08,M,53.80,M,,*7B
$GPGGA,093837.90,4138.7982,N,00445.6838,W,1,14,0.7,713.08,M,53.80,M,,*7A
$GPGGA,093838.00,4138.7982,N,00445.6838,W,1,14,0.7,713.08,M,53.80,M,,*7C
$GPGGA,093838.10,4138.7982,N,00445.6838,W,1,14,0.7,713.08,M,53.80,M,,*7D
$GPGGA,093838.20,4138.7982,N,00445.6838,W,1,14,0.7,713.08,M,53.80,M,,*7E
$GPGGA,093838.30,4138.7982,N,00445.6838,W,1,14,0.7,713.08,M,53.80,M,,*7F
$GPGGA,093838.40,4138.7982,N,00445.6838,W,1,14,0.7,713.08,M,53.80,M,,*78
$GPGGA,093838.50,4138.7982,N,00445.6838,W,1,14,0.7,713.08,M,53.80,M,,*79
$GPGGA,093838.60,4138.7982,N,00445.6838,W,1,14,0.7,713.08,M,53.80,M,,*7A
$GPGGA,093838.70,4138.7982,N,00445.6838,W,1,14,0.7,713.09,M,53.80,M,,*7A
$GPGGA,093838.80,4138.7982,N,00445.6838,W,1,14,0.7,713.09,M,53.80,M,,*75
$GPGGA,093838.90,4138.7982,N,00445.6838,W,1,14,0.7,713.09,M,53.80,M,,*74
$GPGGA,093839.00,4138.7983,N,00445.6838,W,1,14,0.7,713.09,M,53.80,M,,*7D
$GPGGA,093839.10,4138.7983,N,00445.6838,W,1,14,0.7,713.09,M,53.80,M,,*7C
$GPGGA,093839.20,4138.7983,N,00445.6838,W,1,14,0.7,713.09,M,53.80,M,,*7F
$GPGGA,093839.30,4138.7983,N,00445.6838,W,1,14,0.7,713.09,M,53.80,M,,*7E
$GPGGA,093839.40,4138.7984,N,00445.6838,W,1,14,0.7,713.09,M,53.80,M,,*7E
$GPGGA,093839.50,4138.7984,N,00445.6838,W,1,14,0.7,713.09,M,53.80,M,,*7F
$GPGGA,093839.60,4138.7984,N,00445.6838,W,1,14,0.7,713.08,M,53.80,M,,*7D
$GPGGA,093839.70,4138.7985,N,00445.6838,W,1,14,0.7,713.09,M,53.80,M,,*7C
$GPGGA,093839.80,4138.7985,N,00445.6838,W,1,14,0.7,713.09,M,53.80,M,,*73
$GPGGA,093839.90,4138.7985,N,00445.6838,W,1,14,0.7,713.08,M,53.80,M,,*73
$GPGGA,093840.00,4138.7986,N,00445.6838,W,1,14,0.7,713.08,M,53.80,M,,*77
$GPGGA,093840.10,4138.7986,N,00445.6838,W,1,14,0.7,713.07,M,53.80,M,,*79
$GPGGA,093840.20,4138.7986,N,00445.6838,W,1,14,0.7,713.07,M,53.80,M,,*7A
$GPGGA,093840.30,4138.7987,N,00445.6838,W,1,14,0.7,713.07,M,53.80,M,,*7A
$GPGGA,093840.40,4138.7987,N,00445.6838,W,1,14,0.7,713.07,M,53.80,M,,*7D
$GPGGA,093840.50,4138.7988,N,00445.6838,W,1,14,0.7,713.07,M,53.80,M,,*73
$GPGGA,093840.60,4138.7988,N,00445.6838,W,1,14,0.7,713.07,M,53.80,M,,*70
$GPGGA,093840.70,4138.7988,N,00445.6838,W,1,14,0.7,713.06,M,53.80,M,,*70
$GPGGA,093840.80,4138.7989,N,00445.6838,W,1,14,0.7,713.06,M,53.80,M,,*7E
$GPGGA,093840.90,4138.7989,N,00445.6838,W,1,14,0.7,713.06,M,53.80,M,,*7F
$GPGGA,093841.00,4138.7990,N,00445.6838,W,1,14,0.7,713.05,M,53.80,M,,*7C
$GPGGA,093841.10,4138.7990,N,00445.6837,W,1,14,0.7,713.05,M,53.80,M,,*72
$GPGGA,093841.20,4138.7991,N,00445.6837,W,1,14,0.7,713.05,M,53.80,M,,*70
$GPGGA,093841.30,4138.7992,N,00445.6837,W,1,14,0.7,713.04,M,53.80,M,,*73
$GPGGA,093841.40,4138.7992,N,00445.6837,W,1,14,0.7,713.04,M,53.80,M,,*74
$GPGGA,093841.50,4138.7993,N,00445.6837,W,1,14,0.7,713.04,M,53.80,M,,*74
$GPGGA,093841.60,4138.7994,N,00445.6837,W,1,14,0.7,713.03,M,53.80,M,,*77
$GPGGA,093841.70,4138.7995,N,00445.6837,W,1,14,0.7,713.03,M,53.80,M,,*77
$GPGGA,093841.80,4138.7996,N,00445.6837,W,1,14,0.7,713.02,M,53.80,M,,*7A
$GPGGA,093841.90,4138.7997,N,00445.6837,W,1,14,0.7,713.02,M,53.80,M,,*7A
$GPGGA,093842.00,4138.7998,N,00445.6837,W,1,14,0.7,713.02,M,53.80,M,,*7F
$GPGGA,093842.10,4138.7999,N,00445.6837,W,1,14,0.7,713.01,M,53.80,M,,*7C
$GPGGA,093842.20,4138.8000,N,00445.6837,W,1,14,0.7,713.00,M,53.80,M,,*78
$GPGGA,093842.30,4138.8002,N,00445.6836,W,1,14,0.7,713.00,M,53.80,M,,*7A
$GPGGA,093842.40,4138.8003,N,00445.6836,W,1,14,0.7,712.99,M,53.80,M,,*7D
$GPGGA,093842.50,4138.8005,N,00445.6836,W,1,14,0.7,712.98,M,53.80,M,,*7B
$GPGGA,093842.60,4138.8006,N,00445.6836,W,1,14,0.7,712.98,M,53.80,M,,*7B
$GPGGA,093842.70,4138.8008,N,00445.6836,W,1,14,0.7,712.97,M,53.80,M,,*7B
$GPGGA,093842.80,4138.8010,N,00445.6836,W,1,14,0.7,712.97,M,53.80,M,,*7D
$GPGGA,093842.90,4138.8012,N,00445.6835,W,1,14,0.7,712.95,M,53.80,M,,*7F
$GPGGA,093843.00,4138.8014,N,00445.6835,W,1,14,0.7,712.95,M,53.80,M,,*71
$GPGGA,093843.10,4138.8016,N,00445.6835,W,1,14,0.7,712.93,M,53.80,M,,*74
$GPGGA,093843.20,4138.8018,N,00445.6835,W,1,14,0.7,712.93,M,53.80,M,,*79
$GPGGA,093843.30,4138.8020,N,00445.6834,W,1,14,0.7,712.91,M,53.80,M,,*70
$GPGGA,093843.40,4138.8022,N,00445.6834,W,1,14,0.7,712.92,M,53.80,M,,*76
$GPGGA,093843.50,4138.8024,N,00445.6834,W,1,14,0.7,712.90,M,53.80,M,,*73
$GPGGA,093843.60,4138.8027,N,00445.6833,W,1,14,0.7,712.90,M,53.80,M,,*74
$GPGGA,093843.70,4138.8029,N,00445.6833,W,1,14,0.7,712.89,M,53.80,M,,*73
$GPGGA,093843.80,4138.8031,N,00445.6833,W,1,14,0.7,712.87,M,53.80,M,,*7B
$GPGGA,093843.90,4138.8033,N,00445.6832,W,1,14,0.7,712.87,M,53.80,M,,*79
$GPGGA,093844.00,4138.8036,N,00445.6832,W,1,14,0.7,712.86,M,53.80,M,,*73
$GPGGA,093844.10,4138.8038,N,00445.6832,W,1,14,0.7,712.85,M,53.80,M,,*7F
$GPGGA,093844.20,4138.8040,N,00445.6832,W,1,14,0.7,712.83,M,53.80,M,,*75
$GPGGA,093844.30,4138.8042,N,00445.6831,W,1,14,0.7,712.82,M,53.80,M,,*74
$GPGGA,093844.40,4138.8044,N,00445.6831,W,1,14,0.7,712.81,M,53.80,M,,*76
$GPGGA,093844.50,4138.8047,N,00445.6831,W,1,14,0.7,712.81,M,53.80,M,,*74
$GPGGA,093844.60,4138.8049,N,00445.6831,W,1,14,0.7,712.81,M,53.80,M,,*79
$GPGGA,093844.70,4138.8051,N,00445.6830,W,1,14,0.7,712.80,M,53.80,M,,*71
$GPGGA,093844.80,4138.8053,N,00445.6830,W,1,14,0.7,712.78,M,53.80,M,,*7B
$GPGGA,093844.90,4138.8056,N,00445.6830,W,1,14,0.7,712.78,M,53.80,M,,*7F
$GPGGA,093845.00,4138.8058,N,00445.6830,W,1,14,0.7,712.75,M,53.80,M,,*74
$GPGGA,093845.10,4138.8060,N,00445.6830,W,1,13,0.7,712.75,M,53.80,M,,*79
$GPGGA,093845.20,4138.8062,N,00445.6830,W,1,13,0.7,712.74,M,53.80,M,,*79
$GPGGA,093845.30,4138.8064,N,00445.6830,W,1,13,0.7,712.74,M,53.80,M,,*7E
$GPGGA,093845.40,4138.8066,N,00445.6831,W,1,13,0.7,712.73,M,53.80,M,,*7D
$GPGGA,093845.50,4138.8068,N,00445.6831,W,1,13,0.8,712.72,M,53.80,M,,*7C
$GPGGA,093845.60,4138.8070,N,00445.6831,W,1,13,0.8,712.71,M,53.80,M,,*75
$GPGGA,093845.70,4138.8073,N,00445.6832,W,1,13,0.8,712.71,M,53.80,M,,*74
$GPGGA,093845.80,4138.8075,N,00445.6832,W,1,13,0.8,712.69,M,53.80,M,,*74
$GPGGA,093845.90,4138.8077,N,00445.6833,W,1,13,0.8,712.69,M,53.80,M,,*76
$GPGGA,093846.00,4138.8079,N,00445.6834,W,1,13,0.8,712.68,M,53.80,M,,*74
$GPGGA,093846.10,4138.8081,N,00445.6835,W,1,13,0.8,712.66,M,53.80,M,,*7D
$GPGGA,093846.20,4138.8083,N,00445.6836,W,1,13,0.8,712.66,M,53.80,M,,*7F
$GPGGA,093846.30,4138.8085,N,00445.6837,W,1,13,0.8,712.66,M,53.80,M,,*79
$GPGGA,093846.40,4138.8087,N,00445.6838,W,1,13,0.8,712.65,M,53.80,M,,*70
$GPGGA,093846.50,4138.8089,N,00445.6839,W,1,13,0.8,712.65,M,53.80,M,,*7E
$GPGGA,093846.60,4138.8091,N,00445.6841,W,1,13,0.8,712.65,M,53.80,M,,*7B
$GPGGA,093846.70,4138.8093,N,00445.6842,W,1,14,0.8,712.65,M,53.80,M,,*7C
$GPGGA,093846.80,4138.8094,N,00445.6844,W,1,14,0.8,712.63,M,53.80,M,,*74
$GPGGA,093846.90,4138.8096,N,00445.6846,W,1,14,0.8,712.63,M,53.80,M,,*75
$GPGGA,093847.00,4138.8098,N,00445.6847,W,1,14,0.7,712.62,M,53.80,M,,*7C
$GPGGA,093847.10,4138.8100,N,00445.6849,W,1,14,0.7,712.62,M,53.80,M,,*73
$GPGGA,093847.20,4138.8102,N,00445.6851,W,1,14,0.7,712.62,M,53.80,M,,*7B
$GPGGA,093847.30,4138.8103,N,00445.6854,W,1,14,0.7,712.62,M,53.80,M,,*7E
$GPGGA,093847.40,4138.8105,N,00445.6856,W,1,14,0.7,712.61,M,53.80,M,,*7E
$GPGGA,093847.50,4138.8106,N,00445.6859,W,1,14,0.7,712.61,M,53.80,M,,*73
$GPGGA,093847.60,4138.8108,N,00445.6861,W,1,14,0.7,712.62,M,53.80,M,,*76
$GPGGA,093847.70,4138.8109,N,00445.6864,W,1,14,0.7,712.61,M,53.80,M,,*70
$GPGGA,093847.80,4138.8110,N,00445.6866,W,1,14,0.7,712.59,M,53.80,M,,*7E
$GPGGA,093847.90,4138.8111,N,00445.6869,W,1,14,0.7,712.60,M,53.80,M,,*7B
$GPGGA,093848.00,4138.8113,N,00445.6872,W,1,14,0.7,712.59,M,53.80,M,,*7F
$GPGGA,093848.10,4138.8113,N,00445.6875,W,1,14,0.7,712.60,M,53.80,M,,*73
$GPGGA,093848.20,4138.8114,N,00445.6878,W,1,14,0.7,712.60,M,53.80,M,,*7A
$GPGGA,093848.30,4138.8115,N,00445.6881,W,1,14,0.7,712.60,M,53.80,M,,*7C
$GPGGA,093848.40,4138.8116,N,00445.6885,W,1,14,0.7,712.60,M,53.80,M,,*7C
$GPGGA,093848.50,4138.8116,N,00445.6888,W,1,14,0.7,712.60,M,53.80,M,,*70
$GPGGA,093848.60,4138.8116,N,00445.6891,W,1,14,0.7,712.60,M,53.80,M,,*7B
$GPGGA,093848.70,4138.8117,N,00445.6894,W,1,14,0.7,712.61,M,53.80,M,,*7F
$GPGGA,093848.80,4138.8117,N,00445.6897,W,1,14,0.7,712.59,M,53.80,M,,*78
$GPGGA,093848.90,4138.8117,N,00445.6901,W,1,14,0.7,712.60,M,53.80,M,,*7D
$GPGGA,093849.00,4138.8117,N,00445.6904,W,1,14,0.7,712.59,M,53.80,M,,*7A
$GPGGA,093849.10,4138.8117,N,00445.6907,W,1,14,0.7,712.59,M,53.80,M,,*78
$GPGGA,093849.20,4138.8116,N,00445.6910,W,1,14,0.7,712.60,M,53.80,M,,*76
$GPGGA,093849.30,4138.8116,N,00445.6914,W,1,14,0.7,712.61,M,53.80,M,,*72
$GPGGA,093849.40,4138.8115,N,00445.6917,W,1,14,0.7,712.61,M,53.80,M,,*75
$GPGGA,093849.50,4138.8114,N,00445.6920,W,1,14,0.7,712.62,M,53.80,M,,*72
$GPGGA,093849.60,4138.8114,N,00445.6923,W,1,14,0.7,712.63,M,53.80,M,,*73
$GPGGA,093849.70,4138.8113,N,00445.6926,W,1,14,0.7,712.63,M,53.80,M,,*70
$GPGGA,093849.80,4138.8112,N,00445.6929,W,1,14,0.7,712.60,M,53.80,M,,*72
$GPGGA,093849.90,4138.8111,N,00445.6932,W,1,14,0.7,712.61,M,53.80,M,,*7B
$GPGGA,093850.00,4138.8110,N,00445.6934,W,1,14,0.7,712.61,M,53.80,M,,*7D
$GPGGA,093850.10,4138.8108,N,00445.6937,W,1,14,0.7,712.63,M,53.80,M,,*74
$GPGGA,093850.20,4138.8107,N,00445.6940,W,1,14,0.7,712.64,M,53.80,M,,*7F
$GPGGA,093850.30,4138.8105,N,00445.6942,W,1,14,0.7,712.64,M,53.80,M,,*7E
$GPGGA,093850.40,4138.8104,N,00445.6944,W,1,14,0.7,712.65,M,53.80,M,,*7F
$GPGGA,093850.50,4138.8102,N,00445.6947,W,1,14,0.7,712.66,M,53.80,M,,*78
$GPGGA,093850.60,4138.8100,N,00445.6949,W,1,14,0.7,712.67,M,53.80,M,,*76
$GPGGA,093850.70,4138.8098,N,00445.6951,W,1,14,0.7,712.68,M,53.80,M,,*71
$GPGGA,093850.80,4138.8097,N,00445.6952,W,1,14,0.7,712.68,M,53.80,M,,*72
$GPGGA,093850.90,4138.8095,N,00445.6954,W,1,14,0.7,712.69,M,53.80,M,,*76
$GPGGA,093851.00,4138.8093,N,00445.6956,W,1,14,0.7,712.70,M,53.80,M,,*72
$GPGGA,093851.10,4138.8090,N,00445.6957,W,1,14,0.7,712.71,M,53.80,M,,*70
$GPGGA,093851.20,4138.8088,N,00445.6958,W,1,14,0.7,712.72,M,53.80,M,,*76
$GPGGA,093851.30,4138.8086,N,00445.6960,W,1,14,0.7,712.73,M,53.80,M,,*73
$GPGGA,093851.40,4138.8084,N,00445.6961,W,1,14,0.7,712.74,M,53.80,M,,*70
$GPGGA,093851.50,4138.8081,N,00445.6961,W,1,14,0.7,712.76,M,53.80,M,,*76
$GPGGA,093851.60,4138.8079,N,00445.6962,W,1,14,0.7,712.75,M,53.80,M,,*72
$GPGGA,093851.70,4138.8077,N,00445.6963,W,1,14,0.7,712.77,M,53.80,M,,*7E
$GPGGA,093851.80,4138.8074,N,00445.6963,W,1,14,0.7,712.76,M,53.80,M,,*73
$GPGGA,093851.90,4138.8072,N,00445.6963,W,1,14,0.7,712.78,M,53.80,M,,*7A
$GPGGA,093852.00,4138.8069,N,00445.6964,W,1,14,0.7,712.78,M,53.80,M,,*7D
$GPGGA,093852.10,4138.8066,N,00445.6964,W,1,14,0.7,712.79,M,53.80,M,,*72
$GPGGA,093852.20,4138.8064,N,00445.6964,W,1,14,0.7,712.80,M,53.80,M,,*75
$GPGGA,093852.30,4138.8061,N,00445.6964,W,1,14,0.7,712.81,M,53.80,M,,*70
$GPGGA,093852.40,4138.8058,N,00445.6964,W,1,14,0.7,712.82,M,53.80,M,,*7E
$GPGGA,093852.50,4138.8056,N,00445.6964,W,1,14,0.7,712.82,M,53.80,M,,*71
$GPGGA,093852.60,4138.8053,N,00445.6963,W,1,14,0.7,712.84,M,53.80,M,,*76
$GPGGA,093852.70,4138.8050,N,00445.6963,W,1,14,0.7,712.85,M,53.80,M,,*75
$GPGGA,093852.80,4138.8047,N,00445.6963,W,1,14,0.7,712.85,M,53.80,M,,*7C
$GPGGA,093852.90,4138.8044,N,00445.6963,W,1,14,0.7,712.86,M,53.80,M,,*7D
$GPGGA,093853.00,4138.8041,N,00445.6962,W,1,14,0.7,712.87,M,53.80,M,,*70
$GPGGA,093853.10,4138.8038,N,00445.6962,W,1,14,0.7,712.88,M,53.80,M,,*70
$GPGGA,093853.20,4138.8035,N,00445.6962,W,1,14,0.7,712.90,M,53.80,M,,*77
$GPGGA,093853.30,4138.8032,N,00445.6961,W,1,14,0.7,712.90,M,53.80,M,,*72
$GPGGA,093853.40,4138.8029,N,00445.6961,W,1,14,0.7,712.91,M,53.80,M,,*7E
$GPGGA,093853.50,4138.8026,N,00445.6960,W,1,14,0.7,712.93,M,53.80,M,,*73
$GPGGA,093853.60,4138.8023,N,00445.6960,W,1,14,0.7,712.94,M,53.80,M,,*72
$GPGGA,093853.70,4138.8020,N,00445.6960,W,1,14,0.7,712.95,M,53.80,M,,*71
$GPGGA,093853.80,4138.8017,N,00445.6959,W,1,14,0.7,712.97,M,53.80,M,,*72
$GPGGA,093853.90,4138.8014,N,00445.6959,W,1,14,0.7,712.97,M,53.80,M,,*70
$GPGGA,093854.00,4138.8011,N,00445.6958,W,1,14,0.7,712.99,M,53.80,M,,*74
$GPGGA,093854.10,4138.8008,N,00445.6958,W,1,14,0.7,713.01,M,53.80,M,,*7D
$GPGGA,093854.20,4138.8005,N,00445.6957,W,1,14,0.7,713.02,M,53.80,M,,*7F
$GPGGA,093854.30,4138.8002,N,00445.6957,W,1,14,0.7,713.04,M,53.80,M,,*7F
$GPGGA,093854.40,4138.7998,N,00445.6956,W,1,14,0.7,713.05,M,53.80,M,,*7D
$GPGGA,093854.50,4138.7995,N,00445.6956,W,1,14,0.7,713.07,M,53.80,M,,*73
$GPGGA,093854.60,4138.7992,N,00445.6956,W,1,14,0.7,713.08,M,53.80,M,,*78
$GPGGA,093854.70,4138.7989,N,00445.6955,W,1,14,0.7,713.10,M,53.80,M,,*79
$GPGGA,093854.80,4138.7986,N,00445.6955,W,1,14,0.7,713.11,M,53.80,M,,*78
$GPGGA,093854.90,4138.7982,N,00445.6954,W,1,14,0.7,713.12,M,53.80,M,,*7F
$GPGGA,093855.00,4138.7979,N,00445.6954,W,1,14,0.7,713.14,M,53.80,M,,*75
$GPGGA,093855.10,4138.7976,N,00445.6953,W,1,14,0.7,713.16,M,53.80,M,,*7E
$GPGGA,093855.20,4138.7973,N,00445.6953,W,1,14,0.7,713.17,M,53.80,M,,*79
$GPGGA,093855.30,4138.7969,N,00445.6953,W,1,14,0.7,713.19,M,53.80,M,,*7D
$GPGGA,093855.40,4138.7966,N,00445.6952,W,1,14,0.7,713.20,M,53.80,M,,*7E
$GPGGA,093855.50,4138.7963,N,00445.6952,W,1,14,0.7,713.21,M,53.80,M,,*7B
$GPGGA,093855.60,4138.7960,N,00445.6951,W,1,14,0.7,713.23,M,53.80,M,,*7A
$GPGGA,093855.70,4138.7956,N,00445.6951,W,1,14,0.7,713.24,M,53.80,M,,*79
$GPGGA,093855.80,4138.7953,N,00445.6951,W,1,14,0.7,713.25,M,53.80,M,,*72
$GPGGA,093855.90,4138.7950,N,00445.6950,W,1,14,0.7,713.27,M,53.80,M,,*73
$GPGGA,093856.00,4138.7946,N,00445.6950,W,1,14,0.7,713.28,M,53.80,M,,*71
$GPGGA,093856.10,4138.7943,N,00445.6950,W,1,14,0.7,713.30,M,53.80,M,,*7C
$GPGGA,093856.20,4138.7940,N,00445.6949,W,1,14,0.7,713.31,M,53.80,M,,*75
$GPGGA,093856.30,4138.7936,N,00445.6949,W,1,14,0.7,713.33,M,53.80,M,,*77
$GPGGA,093856.40,4138.7933,N,00445.6949,W,1,14,0.7,713.35,M,53.80,M,,*73
$GPGGA,093856.50,4138.7930,N,00445.6949,W,1,14,0.7,713.37,M,53.80,M,,*73
$GPGGA,093856.60,4138.7926,N,00445.6948,W,1,14,0.7,713.39,M,53.80,M,,*78
$GPGGA,093856.70,4138.7923,N,00445.6948,W,1,14,0.7,713.41,M,53.80,M,,*73
$GPGGA,093856.80,4138.7920,N,00445.6948,W,1,14,0.7,713.43,M,53.80,M,,*7D
$GPGGA,093856.90,4138.7916,N,00445.6948,W,1,14,0.7,713.45,M,53.80,M,,*7F
$GPGGA,093857.00,4138.7913,N,00445.6947,W,1,14,0.7,713.47,M,53.80,M,,*7F
$GPGGA,093857.10,4138.7909,N,00445.6947,W,1,14,0.7,713.50,M,53.80,M,,*73
$GPGGA,093857.20,4138.7906,N,00445.6947,W,1,14,0.7,713.52,M,53.80,M,,*7D
$GPGGA,093857.30,4138.7903,N,00445.6946,W,1,14,0.7,713.54,M,53.80,M,,*7E
$GPGGA,093857.40,4138.7899,N,00445.6946,W,1,14,0.7,713.55,M,53.80,M,,*7A
$GPGGA,093857.50,4138.7896,N,00445.6946,W,1,14,0.7,713.58,M,53.80,M,,*79
$GPGGA,093857.60,4138.7893,N,00445.6945,W,1,14,0.7,713.59,M,53.80,M,,*7D
$GPGGA,093857.70,4138.7889,N,00445.6945,W,1,14,0.7,713.60,M,53.80,M,,*7D
$GPGGA,093857.80,4138.7886,N,00445.6945,W,1,14,0.7,713.61,M,53.80,M,,*7C
$GPGGA,093857.90,4138.7882,N,00445.6944,W,1,14,0.7,713.63,M,53.80,M,,*7A
$GPGGA,093858.00,4138.7879,N,00445.6944,W,1,14,0.7,713.65,M,53.80,M,,*7E
$GPGGA,093858.10,4138.7875,N,00445.6944,W,1,14,0.7,713.66,M,53.80,M,,*70
$GPGGA,093858.20,4138.7872,N,00445.6944,W,1,14,0.7,713.67,M,53.80,M,,*75
$GPGGA,093858.30,4138.7868,N,00445.6944,W,1,14,0.7,713.69,M,53.80,M,,*71
$GPGGA,093858.40,4138.7865,N,00445.6944,W,1,14,0.7,713.70,M,53.80,M,,*73
$GPGGA,093858.50,4138.7862,N,00445.6944,W,1,14,0.7,713.72,M,53.80,M,,*77
$GPGGA,093858.60,4138.7858,N,00445.6944,W,1,14,0.7,713.73,M,53.80,M,,*7C
$GPGGA,093858.70,4138.7855,N,00445.6944,W,1,14,0.7,713.75,M,53.80,M,,*76
$GPGGA,093858.80,4138.7851,N,00445.6944,W,1,14,0.7,713.76,M,53.80,M,,*7E
$GPGGA,093858.90,4138.7848,N,00445.6944,W,1,14,0.7,713.78,M,53.80,M,,*79
$GPGGA,093859.00,4138.7844,N,00445.6944,W,1,14,0.7,713.78,M,53.80,M,,*7D
$GPGGA,093859.10,4138.7841,N,00445.6944,W,1,14,0.7,713.80,M,53.80,M,,*7E
$GPGGA,093859.20,4138.7837,N,00445.6944,W,1,14,0.7,713.82,M,53.80,M,,*7E
$GPGGA,093859.30,4138.7834,N,00445.6944,W,1,14,0.7,713.83,M,53.80,M,,*7D
$GPGGA,093859.40,4138.7830,N,00445.6944,W,1,14,0.7,713.85,M,53.80,M,,*78
$GPGGA,093859.50,4138.7827,N,00445.6945,W,1,14,0.7,713.87,M,53.80,M,,*7C
$GPGGA,093859.60,4138.7823,N,00445.6945,W,1,14,0.7,713.88,M,53.80,M,,*74
$GPGGA,093859.70,4138.7819,N,00445.6945,W,1,14,0.7,713.90,M,53.80,M,,*75
$GPGGA,093859.80,4138.7816,N,00445.6945,W,1,14,0.7,713.92,M,53.80,M,,*77
$GPGGA,093859.90,4138.7812,N,00445.6946,W,1,14,0.7,713.93,M,53.80,M,,*70
$GPGGA,093900.00,4138.7809,N,00445.6946,W,1,14,0.7,713.95,M,53.80,M,,*78
$GPGGA,093900.10,4138.7805,N,00445.6946,W,1,14,0.7,713.97,M,53.80,M,,*77
$GPGGA,093900.20,4138.7802,N,00445.6947,W,1,14,0.7,713.99,M,53.80,M,,*7C
$GPGGA,093900.30,4138.7798,N,00445.6947,W,1,14,0.7,714.00,M,53.80,M,,*76
$GPGGA,093900.40,4138.7794,N,00445.6947,W,1,14,0.7,714.02,M,53.80,M,,*7F
$GPGGA,093900.50,4138.7791,N,00445.6948,W,1,14,0.7,714.04,M,53.80,M,,*72
$GPGGA,093900.60,4138.7787,N,00445.6948,W,1,14,0.7,714.05,M,53.80,M,,*77
$GPGGA,093900.70,4138.7784,N,00445.6948,W,1,14,0.7,714.07,M,53.80,M,,*77
$GPGGA,093900.80,4138.7780,N,00445.6949,W,1,14,0.7,714.09,M,53.80,M,,*73
$GPGGA,093900.90,4138.7776,N,00445.6949,W,1,14,0.7,714.10,M,53.80,M,,*73
$GPGGA,093901.00,4138.7773,N,00445.6949,W,1,14,0.7,714.12,M,53.80,M,,*7C
$GPGGA,093901.10,4138.7769,N,00445.6950,W,1,14,0.7,714.14,M,53.80,M,,*78
$GPGGA,093901.20,4138.7766,N,00445.6950,W,1,14,0.7,714.15,M,53.80,M,,*75
$GPGGA,093901.30,4138.7762,N,00445.6950,W,1,14,0.7,714.16,M,53.80,M,,*73
$GPGGA,093901.40,4138.7758,N,00445.6951,W,1,14,0.7,714.19,M,53.80,M,,*73
$GPGGA,093901.50,4138.7755,N,00445.6951,W,1,14,0.7,714.21,M,53.80,M,,*74
$GPGGA,093901.60,4138.7751,N,00445.6951,W,1,14,0.7,714.22,M,53.80,M,,*70
$GPGGA,093901.70,4138.7748,N,00445.6951,W,1,14,0.7,714.23,M,53.80,M,,*78
$GPGGA,093901.80,4138.7744,N,00445.6952,W,1,14,0.7,714.26,M,53.80,M,,*7D
$GPGGA,093901.90,4138.7740,N,00445.6952,W,1,14,0.7,714.27,M,53.80,M,,*79
$GPGGA,093902.00,4138.7737,N,00445.6952,W,1,14,0.7,714.29,M,53.80,M,,*7D
$GPGGA,093902.10,4138.7733,N,00445.6952,W,1,14,0.7,714.31,M,53.80,M,,*71
$GPGGA,093902.20,4138.7730,N,00445.6953,W,1,14,0.7,714.33,M,53.80,M,,*72
$GPGGA,093902.30,4138.7726,N,00445.6953,W,1,14,0.7,714.34,M,53.80,M,,*73
$GPGGA,093902.40,4138.7722,N,00445.6953,W,1,14,0.7,714.37,M,53.80,M,,*73
$GPGGA,093902.50,4138.7719,N,00445.6954,W,1,14,0.7,714.38,M,53.80,M,,*72
$GPGGA,093902.60,4138.7715,N,00445.6954,W,1,14,0.7,714.41,M,53.80,M,,*73
$GPGGA,093902.70,4138.7711,N,00445.6954,W,1,14,0.7,714.41,M,53.80,M,,*76
$GPGGA,093902.80,4138.7708,N,00445.6954,W,1,14,0.7,714.44,M,53.80,M,,*74
$GPGGA,093902.90,4138.7704,N,00445.6955,W,1,14,0.7,714.46,M,53.80,M,,*7A
$GPGGA,093903.00,4138.7701,N,00445.6955,W,1,14,0.7,714.47,M,53.80,M,,*76
$GPGGA,093903.10,4138.7697,N,00445.6955,W,1,14,0.7,714.49,M,53.80,M,,*77
$GPGGA,093903.20,4138.7693,N,00445.6955,W,1,14,0.7,714.51,M,53.80,M,,*79
$GPGGA,093903.30,4138.7690,N,00445.6955,W,1,14,0.7,714.52,M,53.80,M,,*78
$GPGGA,093903.40,4138.7686,N,00445.6956,W,1,14,0.7,714.54,M,53.80,M,,*7D
$GPGGA,093903.50,4138.7682,N,00445.6956,W,1,14,0.7,714.56,M,53.80,M,,*7A
$GPGGA,093903.60,4138.7679,N,00445.6956,W,1,14,0.7,714.57,M,53.80,M,,*7C
$GPGGA,093903.70,4138.7675,N,00445.6956,W,1,14,0.7,714.59,M,53.80,M,,*7F
$GPGGA,093903.80,4138.7672,N,00445.6956,W,1,14,0.7,714.60,M,53.80,M,,*7D
$GPGGA,093903.90,4138.7668,N,00445.6957,W,1,14,0.7,714.62,M,53.80,M,,*74
$GPGGA,093904.00,4138.7664,N,00445.6957,W,1,14,0.7,714.64,M,53.80,M,,*70
$GPGGA,093904.10,4138.7661,N,00445.6957,W,1,14,0.7,714.65,M,53.80,M,,*75
$GPGGA,093904.20,4138.7657,N,00445.6957,W,1,14,0.7,714.67,M,53.80,M,,*71
$GPGGA,093904.30,4138.7653,N,00445.6957,W,1,14,0.7,714.69,M,53.80,M,,*7A
$GPGGA,093904.40,4138.7650,N,00445.6958,W,1,14,0.7,714.70,M,53.80,M,,*79
$GPGGA,093904.50,4138.7646,N,00445.6958,W,1,14,0.7,714.72,M,53.80,M,,*7D
$GPGGA,093904.60,4138.7643,N,00445.6958,W,1,14,0.7,714.73,M,53.80,M,,*7A
$GPGGA,093904.70,4138.7639,N,00445.6958,W,1,14,0.7,714.75,M,53.80,M,,*70
$GPGGA,093904.80,4138.7635,N,00445.6958,W,1,14,0.7,714.77,M,53.80,M,,*71
$GPGGA,093904.90,4138.7632,N,00445.6958,W,1,14,0.7,714.79,M,53.80,M,,*79
$GPGGA,093905.00,4138.7628,N,00445.6959,W,1,14,0.7,714.80,M,53.80,M,,*7D
$GPGGA,093905.10,4138.7624,N,00445.6959,W,1,14,0.7,714.81,M,53.80,M,,*71
$GPGGA,093905.20,4138.7621,N,00445.6959,W,1,14,0.7,714.83,M,53.80,M,,*75
$GPGGA,093905.30,4138.7617,N,00445.6959,W,1,14,0.7,714.84,M,53.80,M,,*76
$GPGGA,093905.40,4138.7613,N,00445.6959,W,1,14,0.7,714.86,M,53.80,M,,*77
$GPGGA,093905.50,4138.7610,N,00445.6960,W,1,14,0.7,714.87,M,53.80,M,,*7E
$GPGGA,093905.60,4138.7606,N,00445.6960,W,1,14,0.7,714.88,M,53.80,M,,*75
$GPGGA,093905.70,4138.7602,N,00445.6960,W,1,14,0.7,714.90,M,53.80,M,,*79
$GPGGA,093905.80,4138.7599,N,00445.6960,W,1,14,0.7,714.92,M,53.80,M,,*75
$GPGGA,093905.90,4138.7595,N,00445.6960,W,1,14,0.7,714.93,M,53.80,M,,*79
$GPGGA,093906.00,4138.7591,N,00445.6961,W,1,14,0.7,714.94,M,53.80,M,,*71
$GPGGA,093906.10,4138.7588,N,00445.6961,W,1,14,0.7,714.96,M,53.80,M,,*7A
$GPGGA,093906.20,4138.7584,N,00445.6961,W,1,14,0.7,714.97,M,53.80,M,,*74
$GPGGA,093906.30,4138.7580,N,00445.6961,W,1,14,0.7,714.98,M,53.80,M,,*7E
$GPGGA,093906.40,4138.7577,N,00445.6961,W,1,14,0.7,715.00,M,53.80,M,,*71
$GPGGA,093906.50,4138.7573,N,00445.6962,W,1,14,0.7,715.01,M,53.80,M,,*76
$GPGGA,093906.60,4138.7569,N,00445.6962,W,1,14,0.7,715.03,M,53.80,M,,*7C
$GPGGA,093906.70,4138.7566,N,00445.6962,W,1,14,0.7,715.04,M,53.80,M,,*75
$GPGGA,093906.80,4138.7562,N,00445.6962,W,1,14,0.7,715.06,M,53.80,M,,*7C
$GPGGA,093906.90,4138.7559,N,00445.6962,W,1,14,0.7,715.07,M,53.80,M,,*74
$GPGGA,093907.00,4138.7555,N,00445.6963,W,1,14,0.7,715.08,M,53.80,M,,*7E
$GPGGA,093907.10,4138.7552,N,00445.6963,W,1,14,0.7,715.09,M,53.80,M,,*79
$GPGGA,093907.20,4138.7548,N,00445.6963,W,1,14,0.7,715.11,M,53.80,M,,*78
$GPGGA,093907.30,4138.7545,N,00445.6963,W,1,14,0.7,715.12,M,53.80,M,,*77
$GPGGA,093907.40,4138.7541,N,00445.6964,W,1,14,0.7,715.13,M,53.80,M,,*72
$GPGGA,093907.50,4138.7538,N,00445.6964,W,1,14,0.7,715.15,M,53.80,M,,*7B
$GPGGA,093907.60,4138.7534,N,00445.6964,W,1,14,0.7,715.16,M,53.80,M,,*77
$GPGGA,093907.70,4138.7531,N,00445.6964,W,1,14,0.7,715.17,M,53.80,M,,*72
$GPGGA,093907.80,4138.7528,N,00445.6964,W,1,14,0.7,715.19,M,53.80,M,,*7B
$GPGGA,093907.90,4138.7524,N,00445.6965,W,1,14,0.7,715.20,M,53.80,M,,*7D
$GPGGA,093908.00,4138.7521,N,00445.6965,W,1,14,0.7,715.21,M,53.80,M,,*7F
$GPGGA,093908.10,4138.7518,N,00445.6965,W,1,14,0.7,715.23,M,53.80,M,,*76
$GPGGA,093908.20,4138.7515,N,00445.6965,W,1,14,0.7,715.24,M,53.80,M,,*7F
$GPGGA,093908.30,4138.7511,N,00445.6966,W,1,14,0.7,715.25,M,53.80,M,,*78
$GPGGA,093908.40,4138.7508,N,00445.6966,W,1,14,0.7,715.26,M,53.80,M,,*74
$GPGGA,093908.50,4138.7505,N,00445.6966,W,1,14,0.7,715.27,M,53.80,M,,*79
$GPGGA,093908.60,4138.7502,N,00445.6967,W,1,14,0.7,715.28,M,53.80,M,,*73
$GPGGA,093908.70,4138.7499,N,00445.6967,W,1,14,0.7,715.29,M,53.80,M,,*70
$GPGGA,093908.80,4138.7496,N,00445.6967,W,1,14,0.7,715.31,M,53.80,M,,*79
$GPGGA,093908.90,4138.7493,N,00445.6967,W,1,14,0.7,715.32,M,53.80,M,,*7E
$GPGGA,093909.00,4138.7490,N,00445.6968,W,1,14,0.7,715.33,M,53.80,M,,*7B
$GPGGA,093909.10,4138.7488,N,00445.6968,W,1,14,0.7,715.34,M,53.80,M,,*74
$GPGGA,093909.20,4138.7485,N,00445.6968,W,1,14,0.7,715.35,M,53.80,M,,*7B
$GPGGA,093909.30,4138.7482,N,00445.6969,W,1,14,0.7,715.36,M,53.80,M,,*7F
$GPGGA,093909.40,4138.7479,N,00445.6969,W,1,14,0.7,715.38,M,53.80,M,,*72
$GPGGA,093909.50,4138.7477,N,00445.6969,W,1,14,0.7,715.39,M,53.80,M,,*7C
$GPGGA,093909.60,4138.7474,N,00445.6970,W,1,14,0.7,715.40,M,53.80,M,,*7A
$GPGGA,093909.70,4138.7472,N,00445.6970,W,1,14,0.7,715.41,M,53.80,M,,*7C
$GPGGA,093909.80,4138.7469,N,00445.6970,W,1,14,0.7,715.42,M,53.80,M,,*7A
$GPGGA,093909.90,4138.7466,N,00445.6970,W,1,14,0.7,715.43,M,53.80,M,,*75
